{"generatedAt":"2026-06-08T08:40:46+03:00","sourceUrl":"https://www.gtt.to.it/open_data/gtt_gtfs.zip","serviceDate":"2026-06-08","feedInfo":{"feed_publisher_name":"Gruppo Torinese Trasporti S.p.A","feed_publisher_url":"http://www.gtt.to.it","feed_lang":"it","feed_start_date":"20260604","feed_end_date":"20261231","feed_version":"20260605","feed_contact_email":"campagna.a@gtt.to.it","feed_contact_url":"http://www.gtt.to.it/cms/dialoga/reclami"},"routes":[{"id":"METROU","shortName":"M1","longName":"metropolitana, stazione Fermi (Collegno) - stazione Bengasi","type":"Metro","color":"#FF0000","url":"http://www.gtt.to.it/cms/percorari/urbano?view=percorsi&bacino=U&linea=METRO&Regol=GE","directions":[{"directionId":"0","headsign":"METRO FERMI","geometry":[[45.01663,7.66119],[45.05471,7.67589],[45.05921,7.6779],[45.06228,7.68006],[45.06815,7.66404],[45.06914,7.66419],[45.07326,7.66718],[45.07441,7.66846],[45.07544,7.66864],[45.07591,7.66832],[45.07624,7.66772],[45.07636,7.66563],[45.07377,7.60112],[45.07605,7.5914]],"stops":[{"id":"8648","name":"METRO BENGASI","lat":45.01663,"lng":7.66122},{"id":"8354","name":"METRO ITALIA61","lat":45.02476,"lng":7.66433},{"id":"3640","name":"METRO LINGOTTO","lat":45.03077,"lng":7.6666},{"id":"3639","name":"METRO SPEZIA","lat":45.03768,"lng":7.66933},{"id":"3638","name":"METRO CARDUCCI","lat":45.0423,"lng":7.67112},{"id":"3637","name":"METRO DANTE","lat":45.04689,"lng":7.67288},{"id":"3636","name":"METRO NIZZA","lat":45.0514,"lng":7.67466},{"id":"3635","name":"METRO MARCONI","lat":45.05713,"lng":7.67693},{"id":"3634","name":"METRO PORTA NUOVA","lat":45.06276,"lng":7.679},{"id":"3633","name":"METRO RE UMBERTO","lat":45.06451,"lng":7.67402},{"id":"3632","name":"METRO VINZAGLIO","lat":45.06727,"lng":7.66623},{"id":"3631","name":"METRO PORTA SUSA","lat":45.06987,"lng":7.66477},{"id":"3630","name":"METRO XVIII DICEMBRE","lat":45.07419,"lng":7.66846},{"id":"3628","name":"METRO PRINCIPI ACAJA","lat":45.07632,"lng":7.66447},{"id":"3627","name":"METRO BERNINI","lat":45.07598,"lng":7.65568},{"id":"3626","name":"METRO RACCONIGI","lat":45.07568,"lng":7.64826},{"id":"3625","name":"METRO RIVOLI","lat":45.07557,"lng":7.64395},{"id":"3624","name":"METRO MONTE GRAPPA","lat":45.07521,"lng":7.63559},{"id":"3623","name":"METRO POZZO STRADA","lat":45.07493,"lng":7.62893},{"id":"3622","name":"METRO MASSAUA","lat":45.07457,"lng":7.62013},{"id":"3621","name":"METRO MARCHE","lat":45.07432,"lng":7.61456},{"id":"3620","name":"METRO PARADISO","lat":45.07381,"lng":7.60206},{"id":"3619","name":"METRO FERMI","lat":45.07605,"lng":7.59139}]},{"directionId":"1","headsign":"METRO BENGASI","geometry":[[45.07605,7.5914],[45.07377,7.60112],[45.07636,7.66563],[45.07624,7.66772],[45.07591,7.66832],[45.07544,7.66864],[45.07441,7.66846],[45.07326,7.66718],[45.06914,7.66419],[45.06815,7.66404],[45.06228,7.68006],[45.05921,7.6779],[45.05471,7.67589],[45.01663,7.66119]],"stops":[{"id":"3619","name":"METRO FERMI","lat":45.07605,"lng":7.59139},{"id":"3620","name":"METRO PARADISO","lat":45.07381,"lng":7.60206},{"id":"3621","name":"METRO MARCHE","lat":45.07432,"lng":7.61456},{"id":"3622","name":"METRO MASSAUA","lat":45.07457,"lng":7.62013},{"id":"3623","name":"METRO POZZO STRADA","lat":45.07493,"lng":7.62893},{"id":"3624","name":"METRO MONTE GRAPPA","lat":45.07521,"lng":7.63559},{"id":"3625","name":"METRO RIVOLI","lat":45.07557,"lng":7.64395},{"id":"3626","name":"METRO RACCONIGI","lat":45.07568,"lng":7.64826},{"id":"3627","name":"METRO BERNINI","lat":45.07598,"lng":7.65568},{"id":"3628","name":"METRO PRINCIPI ACAJA","lat":45.07632,"lng":7.66447},{"id":"3630","name":"METRO XVIII DICEMBRE","lat":45.07419,"lng":7.66846},{"id":"3631","name":"METRO PORTA SUSA","lat":45.06987,"lng":7.66477},{"id":"3632","name":"METRO VINZAGLIO","lat":45.06727,"lng":7.66623},{"id":"3633","name":"METRO RE UMBERTO","lat":45.06451,"lng":7.67402},{"id":"3634","name":"METRO PORTA NUOVA","lat":45.06276,"lng":7.679},{"id":"3635","name":"METRO MARCONI","lat":45.05713,"lng":7.67693},{"id":"3636","name":"METRO NIZZA","lat":45.0514,"lng":7.67466},{"id":"3637","name":"METRO DANTE","lat":45.04689,"lng":7.67288},{"id":"3638","name":"METRO CARDUCCI","lat":45.0423,"lng":7.67112},{"id":"3639","name":"METRO SPEZIA","lat":45.03768,"lng":7.66933},{"id":"3640","name":"METRO LINGOTTO","lat":45.03077,"lng":7.6666},{"id":"8354","name":"METRO ITALIA61","lat":45.02476,"lng":7.66433},{"id":"8648","name":"METRO BENGASI","lat":45.01663,"lng":7.66122}]}]},{"id":"3U","shortName":"3","longName":"piazzale Vallette - piazza Hermada","type":"Tram","color":"#CC9900","url":"http://www.gtt.to.it/cms/percorari/urbano?view=percorsi&bacino=U&linea=3&Regol=GE","directions":[{"directionId":"0","headsign":"VALLETTE","geometry":[[45.06424,7.7117],[45.06892,7.7078],[45.08582,7.65623],[45.08724,7.65657],[45.09187,7.66293],[45.09497,7.66308],[45.09543,7.66277],[45.10308,7.63571],[45.1033,7.6309],[45.10294,7.63005],[45.10317,7.62836],[45.10405,7.62713],[45.10412,7.6243],[45.1045,7.62323],[45.10429,7.62285],[45.104,7.62297],[45.10407,7.62425]],"stops":[{"id":"1337","name":"Fermata 221 - HERMADA CAP","lat":45.06422,"lng":7.71165},{"id":"1326","name":"Fermata 220 - BORROMINI","lat":45.06696,"lng":7.70929},{"id":"1303","name":"Fermata 218 - OSPEDALE GRADENIGO","lat":45.06941,"lng":7.70594},{"id":"1261","name":"Fermata 214 - LARGO BERARDI","lat":45.07059,"lng":7.70239},{"id":"1237","name":"Fermata 212 - CAMPUS EINAUDI","lat":45.07162,"lng":7.69924},{"id":"1187","name":"Fermata 208 - ROSSINI","lat":45.07325,"lng":7.69425},{"id":"1162","name":"Fermata 206 - GIARDINI REALI","lat":45.07447,"lng":7.69064},{"id":"1140","name":"Fermata 204 - XI FEBBRAIO","lat":45.07571,"lng":7.68688},{"id":"1119","name":"Fermata 202 - PORTA PALAZZO OVEST","lat":45.07711,"lng":7.68271},{"id":"1074","name":"Fermata 198 - OSPEDALE COTTOLENGO","lat":45.07836,"lng":7.67881},{"id":"1052","name":"Fermata 196 - RONDÒ FORCA OVEST","lat":45.07957,"lng":7.67528},{"id":"1031","name":"Fermata 194 - INDUSTRIA","lat":45.08149,"lng":7.66957},{"id":"1011","name":"Fermata 192 - LIVORNO","lat":45.08236,"lng":7.66694},{"id":"990","name":"Fermata 190 - AVELLINO","lat":45.08391,"lng":7.66228},{"id":"969","name":"Fermata 188 - TASSONI","lat":45.0857,"lng":7.65675},{"id":"948","name":"Fermata 186 - OSPEDALE AMEDEO DI SAVOIA","lat":45.08894,"lng":7.65896},{"id":"926","name":"Fermata 184 - PIERO DELLA FRANCESCA","lat":45.09149,"lng":7.66249},{"id":"908","name":"Fermata 182 - LARGO BORGARO","lat":45.09492,"lng":7.6631},{"id":"885","name":"Fermata 180 - LARGO TOSCANA","lat":45.09653,"lng":7.65902},{"id":"862","name":"Fermata 178 - BORSI","lat":45.09804,"lng":7.65373},{"id":"840","name":"Fermata 176 - LOMBARDIA","lat":45.09908,"lng":7.65009},{"id":"818","name":"Fermata 174 - CINCINNATO","lat":45.10029,"lng":7.6458},{"id":"797","name":"Fermata 172 - SANSOVINO","lat":45.10161,"lng":7.64097},{"id":"778","name":"Fermata 170 - PERVINCHE","lat":45.10306,"lng":7.63598},{"id":"757","name":"Fermata 168 - MONTALE","lat":45.10333,"lng":7.6311},{"id":"735","name":"Fermata 166 - VALLETTE","lat":45.10415,"lng":7.62496},{"id":"725","name":"Fermata 165 - VALLETTE CAP","lat":45.10406,"lng":7.62425}]},{"directionId":"1","headsign":"HERMADA","geometry":[[45.10407,7.62425],[45.10405,7.62713],[45.10317,7.62836],[45.10294,7.63005],[45.1033,7.6309],[45.10308,7.63571],[45.0955,7.66252],[45.09525,7.66282],[45.0918,7.66271],[45.08724,7.65657],[45.08582,7.65623],[45.06892,7.7078],[45.06424,7.7117]],"stops":[{"id":"725","name":"Fermata 165 - VALLETTE CAP","lat":45.10406,"lng":7.62425},{"id":"746","name":"Fermata 167 - MONTALE","lat":45.10294,"lng":7.62999},{"id":"767","name":"Fermata 169 - PERVINCHE","lat":45.10315,"lng":7.6353},{"id":"787","name":"Fermata 171 - SANSOVINO","lat":45.10176,"lng":7.64011},{"id":"808","name":"Fermata 173 - CINCINNATO","lat":45.1006,"lng":7.64441},{"id":"829","name":"Fermata 175 - LOMBARDIA","lat":45.09938,"lng":7.64863},{"id":"851","name":"Fermata 177 - BORSI","lat":45.09809,"lng":7.65322},{"id":"873","name":"Fermata 179 - LARGO TOSCANA","lat":45.09703,"lng":7.65694},{"id":"897","name":"Fermata 181 - LARGO BORGARO","lat":45.09551,"lng":7.66236},{"id":"916","name":"Fermata 183 - PIERO DELLA FRANCESCA","lat":45.09218,"lng":7.66274},{"id":"937","name":"Fermata 185 - OSPEDALE AMEDEO DI SAVOIA","lat":45.08926,"lng":7.65932},{"id":"958","name":"Fermata 187 - TASSONI","lat":45.08539,"lng":7.65724},{"id":"979","name":"Fermata 189 - AVELLINO","lat":45.08392,"lng":7.66147},{"id":"1001","name":"Fermata 191 - LIVORNO","lat":45.08243,"lng":7.66617},{"id":"1021","name":"Fermata 193 - INDUSTRIA","lat":45.08141,"lng":7.66931},{"id":"1042","name":"Fermata 195 - RONDÒ FORCA OVEST","lat":45.07933,"lng":7.67548},{"id":"1063","name":"Fermata 197 - OSPEDALE COTTOLENGO","lat":45.07813,"lng":7.67925},{"id":"1085","name":"Fermata 199 - PORTA PALAZZO","lat":45.0771,"lng":7.68215},{"id":"1108","name":"Fermata 201 - PORTA PALAZZO EST","lat":45.07642,"lng":7.68449},{"id":"1130","name":"Fermata 203 - XI FEBBRAIO","lat":45.07545,"lng":7.68717},{"id":"1151","name":"Fermata 205 - GIARDINI REALI","lat":45.07425,"lng":7.69081},{"id":"1173","name":"Fermata 207 - ROSSINI","lat":45.07342,"lng":7.69333},{"id":"1226","name":"Fermata 211 - CAMPUS EINAUDI","lat":45.07166,"lng":7.69886},{"id":"1248","name":"Fermata 213 - LARGO BERARDI","lat":45.07077,"lng":7.70155},{"id":"1292","name":"Fermata 217 - OSPEDALE GRADENIGO","lat":45.06907,"lng":7.70633},{"id":"1314","name":"Fermata 219 - BORROMINI","lat":45.06641,"lng":7.70963},{"id":"1337","name":"Fermata 221 - HERMADA CAP","lat":45.06422,"lng":7.71165}]}]},{"id":"4U","shortName":"4","longName":"via delle Querce - strada del Drosso","type":"Tram","color":"#CC9900","url":"http://www.gtt.to.it/cms/percorari/urbano?view=percorsi&bacino=U&linea=4&Regol=GE","directions":[{"directionId":"0","headsign":"LIMITATO, PIAZZA DERNA","geometry":[[45.0137,7.62517],[45.05624,7.67275],[45.0688,7.68173],[45.07571,7.68621],[45.07672,7.6836],[45.10081,7.69933],[45.10221,7.70065],[45.10254,7.70048],[45.10239,7.69995],[45.10193,7.70011],[45.10061,7.6992]],"stops":[{"id":"2032","name":"Fermata 285 - DROSSO CAP","lat":45.0137,"lng":7.62518},{"id":"2576","name":"Fermata 3359 - FARINELLI","lat":45.01656,"lng":7.62835},{"id":"2579","name":"Fermata 3361 - PAVESE","lat":45.01842,"lng":7.63044},{"id":"2581","name":"Fermata 3363 - BARBERA","lat":45.02004,"lng":7.63224},{"id":"2583","name":"Fermata 3365 - VIGLIANI","lat":45.02242,"lng":7.63473},{"id":"3593","name":"Fermata 805 - CAIO MARIO","lat":45.02412,"lng":7.63676},{"id":"3591","name":"Fermata 803 - TRAIANO","lat":45.0258,"lng":7.63852},{"id":"420","name":"Fermata 1370 - PARK CAIO MARIO","lat":45.02812,"lng":7.64121},{"id":"1701","name":"Fermata 2542 - TAZZOLI","lat":45.02925,"lng":7.64247},{"id":"1699","name":"Fermata 2540 - GIAMBONE","lat":45.03251,"lng":7.6461},{"id":"1696","name":"Fermata 2538 - SAN MARINO","lat":45.03526,"lng":7.64919},{"id":"1694","name":"Fermata 2536 - MONTEVIDEO","lat":45.03697,"lng":7.65116},{"id":"1692","name":"Fermata 2534 - FILADELFIA","lat":45.03942,"lng":7.65389},{"id":"1690","name":"Fermata 2532 - SEBASTOPOLI","lat":45.04125,"lng":7.65595},{"id":"1688","name":"Fermata 2530 - CASERMA MORELLI","lat":45.04371,"lng":7.65862},{"id":"1685","name":"Fermata 2528 - LEPANTO","lat":45.04655,"lng":7.66174},{"id":"1683","name":"Fermata 2526 - OSPEDALE MAURIZIANO","lat":45.04978,"lng":7.66539},{"id":"1684","name":"Fermata 2527 - VESPUCCI","lat":45.053,"lng":7.66901},{"id":"135","name":"Fermata 1112 - SOMMEILLER","lat":45.0557,"lng":7.67225},{"id":"137","name":"Fermata 1114 - PASTRENGO","lat":45.05833,"lng":7.67432},{"id":"1007","name":"Fermata 1916 - STATI UNITI","lat":45.06063,"lng":7.67599},{"id":"1687","name":"Fermata 253 - PORTA NUOVA","lat":45.06263,"lng":7.67746},{"id":"1647","name":"Fermata 249 - ARCIVESCOVADO","lat":45.06687,"lng":7.68041},{"id":"1626","name":"Fermata 247 - BERTOLA","lat":45.06945,"lng":7.68216},{"id":"1606","name":"Fermata 245 - GARIBALDI","lat":45.07195,"lng":7.68383},{"id":"1580","name":"Fermata 243 - DUOMO - MUSEI REALI","lat":45.07426,"lng":7.68529},{"id":"3658","name":"Fermata 84 - PORTA PALAZZO NORD","lat":45.07743,"lng":7.68411},{"id":"1560","name":"Fermata 241 - BORGO DORA","lat":45.08013,"lng":7.68585},{"id":"1505","name":"Fermata 236 - EMILIA","lat":45.082,"lng":7.68708},{"id":"1527","name":"Fermata 238 - CARMAGNOLA","lat":45.08509,"lng":7.68908},{"id":"1494","name":"Fermata 235 - NOVARA","lat":45.08839,"lng":7.69121},{"id":"1473","name":"Fermata 233 - PALERMO","lat":45.0916,"lng":7.6934},{"id":"1452","name":"Fermata 231 - LAURO ROSSI","lat":45.0948,"lng":7.69546},{"id":"330","name":"Fermata 1285 - GOTTARDO","lat":45.09706,"lng":7.69694},{"id":"2432","name":"Fermata 3216 - DERNA","lat":45.10085,"lng":7.69938},{"id":"2433","name":"Fermata 3217 - DERNA","lat":45.10062,"lng":7.69919}]},{"directionId":"1","headsign":"MIRAFIORI SUD, STRADA DEL DROSSO","geometry":[[45.10061,7.6992],[45.07079,7.67952],[45.06993,7.68112],[45.06363,7.67645],[45.063,7.67767],[45.05624,7.67275],[45.02454,7.63728],[45.02466,7.6358],[45.02336,7.63496],[45.02269,7.63496],[45.0137,7.62517]],"stops":[{"id":"2433","name":"Fermata 3217 - DERNA","lat":45.10062,"lng":7.69919},{"id":"2434","name":"Fermata 3218 - GOTTARDO","lat":45.09784,"lng":7.69737},{"id":"1516","name":"Fermata 237 - LAURO ROSSI","lat":45.094,"lng":7.69483},{"id":"1462","name":"Fermata 232 - PALERMO","lat":45.09083,"lng":7.69277},{"id":"1484","name":"Fermata 234 - NOVARA","lat":45.08717,"lng":7.69039},{"id":"1538","name":"Fermata 239 - CARMAGNOLA","lat":45.08432,"lng":7.68854},{"id":"248","name":"Fermata 1216 - EMILIA","lat":45.08176,"lng":7.68687},{"id":"1549","name":"Fermata 240 - BORGO DORA","lat":45.07945,"lng":7.68522},{"id":"1097","name":"Fermata 200 - PORTA PALAZZO SUD","lat":45.07607,"lng":7.68304},{"id":"1571","name":"Fermata 242 - CORTE D'APPELLO","lat":45.07366,"lng":7.68145},{"id":"1595","name":"Fermata 244 - MONTE DI PIETÀ","lat":45.0715,"lng":7.6799},{"id":"1619","name":"Fermata 246 - BERTOLA","lat":45.06959,"lng":7.68079},{"id":"1637","name":"Fermata 248 - ARCIVESCOVADO","lat":45.06749,"lng":7.67923},{"id":"1654","name":"Fermata 250 - SAN QUINTINO","lat":45.06472,"lng":7.67716},{"id":"2714","name":"Fermata 3492 - PORTA NUOVA","lat":45.06235,"lng":7.67714},{"id":"1006","name":"Fermata 1915 - STATI UNITI","lat":45.06021,"lng":7.67566},{"id":"253","name":"Fermata 1220 - PASTRENGO","lat":45.05803,"lng":7.67408},{"id":"1005","name":"Fermata 1914 - SOMMEILLER","lat":45.05535,"lng":7.6718},{"id":"1004","name":"Fermata 1913 - VESPUCCI","lat":45.05323,"lng":7.6694},{"id":"1680","name":"Fermata 2523 - OSPEDALE MAURIZIANO","lat":45.05007,"lng":7.66588},{"id":"127","name":"Fermata 1105 - LEPANTO","lat":45.04701,"lng":7.66234},{"id":"1890","name":"Fermata 272 - CASERMA MORELLI","lat":45.04396,"lng":7.65898},{"id":"1911","name":"Fermata 274 - SEBASTOPOLI","lat":45.04172,"lng":7.65649},{"id":"1691","name":"Fermata 2533 - FILADELFIA","lat":45.0396,"lng":7.65411},{"id":"1933","name":"Fermata 276 - MONTEVIDEO","lat":45.03724,"lng":7.65149},{"id":"1695","name":"Fermata 2537 - SAN MARINO","lat":45.03557,"lng":7.6496},{"id":"1954","name":"Fermata 278 - GIAMBONE","lat":45.03303,"lng":7.64679},{"id":"1976","name":"Fermata 280 - TAZZOLI EST","lat":45.02977,"lng":7.64313},{"id":"422","name":"Fermata 1372 - PARK CAIO MARIO","lat":45.0275,"lng":7.6406},{"id":"1999","name":"Fermata 282 - TRAIANO","lat":45.0263,"lng":7.63915},{"id":"2586","name":"Fermata 3368 - CAIO MARIO","lat":45.02419,"lng":7.63541},{"id":"2584","name":"Fermata 3366 - SETTEMBRINI","lat":45.02223,"lng":7.63445},{"id":"2582","name":"Fermata 3364 - BISCARETTI","lat":45.01925,"lng":7.63128},{"id":"2580","name":"Fermata 3362 - PAVESE","lat":45.01763,"lng":7.62947},{"id":"2578","name":"Fermata 3360 - PLAVA","lat":45.0158,"lng":7.62741},{"id":"2575","name":"Fermata 3358 - CASTELLO DI MIRAFIORI","lat":45.01348,"lng":7.62483},{"id":"2032","name":"Fermata 285 - DROSSO CAP","lat":45.0137,"lng":7.62518}]}]},{"id":"9U","shortName":"9","longName":"piazza Stampalia - corso Massimo d'Azeglio","type":"Tram","color":"#CC9900","url":"http://www.gtt.to.it/cms/percorari/urbano?view=percorsi&bacino=U&linea=9&Regol=GE","directions":[{"directionId":"0","headsign":"BARRIERA LANZO, PIAZZA STAMPALIA","geometry":[[45.05123,7.68215],[45.05902,7.68782],[45.05953,7.68779],[45.0653,7.67174],[45.06604,7.67121],[45.06597,7.66987],[45.0713,7.65557],[45.07609,7.65654],[45.08355,7.65575],[45.08675,7.65625],[45.09198,7.66298],[45.0953,7.66294],[45.09691,7.65819],[45.10536,7.66362],[45.10573,7.66316],[45.10666,7.66327],[45.10685,7.6626],[45.11261,7.65961],[45.11255,7.6581]],"stops":[{"id":"2620","name":"Fermata 3400 - D'AZEGLIO CAP","lat":45.05122,"lng":7.68216},{"id":"3412","name":"Fermata 629 - VALENTINO","lat":45.05447,"lng":7.68451},{"id":"3414","name":"Fermata 630 - PELLICO","lat":45.05644,"lng":7.68597},{"id":"3415","name":"Fermata 631 - VITTORIO EMANUELE II","lat":45.05902,"lng":7.68784},{"id":"1040","name":"Fermata 1948 - MADAMA CRISTINA","lat":45.06053,"lng":7.68518},{"id":"1038","name":"Fermata 1946 - CARLO ALBERTO","lat":45.06172,"lng":7.68187},{"id":"2852","name":"Fermata 40 - PORTA NUOVA","lat":45.06284,"lng":7.67883},{"id":"2812","name":"Fermata 36 - RE UMBERTO","lat":45.0643,"lng":7.67473},{"id":"2618","name":"Fermata 34 - GALILEO FERRARIS","lat":45.06614,"lng":7.6696},{"id":"3172","name":"Fermata 562 - VINZAGLIO","lat":45.06764,"lng":7.66545},{"id":"3168","name":"Fermata 558 - PALAGIUSTIZIA","lat":45.06957,"lng":7.66008},{"id":"2501","name":"Fermata 3286 - FERRUCCI","lat":45.07102,"lng":7.65604},{"id":"3207","name":"Fermata 595 - ADRIANO","lat":45.07273,"lng":7.65586},{"id":"3209","name":"Fermata 597 - BERNINI","lat":45.07729,"lng":7.65639},{"id":"3001","name":"Fermata 456 - FABRIZI","lat":45.0802,"lng":7.6562},{"id":"2214","name":"Fermata 3013 - OSPEDALE MARIA VITTORIA","lat":45.08181,"lng":7.65586},{"id":"2212","name":"Fermata 3011 - MARTINETTO","lat":45.08536,"lng":7.6561},{"id":"948","name":"Fermata 186 - OSPEDALE AMEDEO DI SAVOIA","lat":45.08894,"lng":7.65896},{"id":"926","name":"Fermata 184 - PIERO DELLA FRANCESCA","lat":45.09149,"lng":7.66249},{"id":"908","name":"Fermata 182 - LARGO BORGARO","lat":45.09492,"lng":7.6631},{"id":"885","name":"Fermata 180 - LARGO TOSCANA","lat":45.09653,"lng":7.65902},{"id":"2747","name":"Fermata 3522 - FOLIGNO","lat":45.10017,"lng":7.66035},{"id":"2632","name":"Fermata 3414 - MADONNA DI CAMPAGNA","lat":45.10415,"lng":7.66299},{"id":"2749","name":"Fermata 3524 - MASSARI","lat":45.10835,"lng":7.66181},{"id":"2750","name":"Fermata 3525 - VERONESE","lat":45.11236,"lng":7.65976},{"id":"2643","name":"Fermata 3426 - STAMPALIA CAP","lat":45.11256,"lng":7.65809}]},{"directionId":"1","headsign":"SAN SALVARIO, CORSO D'AZEGLIO (TO EXPO)","geometry":[[45.11255,7.6581],[45.11241,7.6573],[45.11209,7.65725],[45.10663,7.66242],[45.1057,7.6629],[45.10534,7.66264],[45.10484,7.66286],[45.10348,7.66219],[45.09693,7.65788],[45.09538,7.66275],[45.09202,7.66278],[45.08675,7.65625],[45.08355,7.65555],[45.07924,7.65614],[45.07601,7.65604],[45.07586,7.65629],[45.07129,7.65539],[45.06587,7.67017],[45.06515,7.67059],[45.0653,7.67174],[45.05953,7.68779],[45.05919,7.68793],[45.0523,7.68288],[45.05312,7.67977],[45.05157,7.67856],[45.05046,7.68142],[45.05123,7.68215]],"stops":[{"id":"2643","name":"Fermata 3426 - STAMPALIA CAP","lat":45.11256,"lng":7.65809},{"id":"2913","name":"Fermata 408 - CALTANISSETTA","lat":45.11004,"lng":7.65917},{"id":"2931","name":"Fermata 410 - BROSSO","lat":45.10845,"lng":7.66055},{"id":"2956","name":"Fermata 413 - LARGO GROSSETO NORD","lat":45.10574,"lng":7.66277},{"id":"3783","name":"Fermata 95 - MADONNA DI CAMPAGNA","lat":45.10389,"lng":7.66229},{"id":"2718","name":"Fermata 3496 - FOLIGNO","lat":45.10056,"lng":7.66019},{"id":"2719","name":"Fermata 3497 - LARGO TOSCANA","lat":45.09743,"lng":7.6581},{"id":"897","name":"Fermata 181 - LARGO BORGARO","lat":45.09551,"lng":7.66236},{"id":"916","name":"Fermata 183 - PIERO DELLA FRANCESCA","lat":45.09218,"lng":7.66274},{"id":"937","name":"Fermata 185 - OSPEDALE AMEDEO DI SAVOIA","lat":45.08926,"lng":7.65932},{"id":"2211","name":"Fermata 3010 - MARTINETTO","lat":45.08518,"lng":7.65582},{"id":"2213","name":"Fermata 3012 - OSPEDALE MARIA VITTORIA","lat":45.08173,"lng":7.65579},{"id":"3002","name":"Fermata 457 - FABRIZI","lat":45.07997,"lng":7.65602},{"id":"3428","name":"Fermata 644 - BERNINI","lat":45.077,"lng":7.6562},{"id":"3430","name":"Fermata 646 - ADRIANO","lat":45.07246,"lng":7.65566},{"id":"2502","name":"Fermata 3287 - FERRUCCI","lat":45.07072,"lng":7.65653},{"id":"3167","name":"Fermata 557 - PALAGIUSTIZIA","lat":45.06931,"lng":7.66046},{"id":"3171","name":"Fermata 561 - VINZAGLIO","lat":45.06748,"lng":7.66555},{"id":"2515","name":"Fermata 33 - GALILEO FERRARIS","lat":45.06604,"lng":7.66954},{"id":"2722","name":"Fermata 35 - RE UMBERTO","lat":45.06412,"lng":7.67487},{"id":"2843","name":"Fermata 39 - PORTA NUOVA","lat":45.06255,"lng":7.6791},{"id":"1037","name":"Fermata 1945 - CARLO ALBERTO","lat":45.06163,"lng":7.68181},{"id":"3563","name":"Fermata 777 - MADAMA CRISTINA","lat":45.06069,"lng":7.68447},{"id":"1041","name":"Fermata 1949 - D'AZEGLIO","lat":45.05954,"lng":7.68753},{"id":"3305","name":"Fermata 609 - PELLICO","lat":45.05667,"lng":7.68604},{"id":"3316","name":"Fermata 610 - VALENTINO","lat":45.05493,"lng":7.68479},{"id":"3327","name":"Fermata 611 - GIURIA","lat":45.05248,"lng":7.68183},{"id":"3338","name":"Fermata 612 - MADAMA CRISTINA EST","lat":45.05311,"lng":7.68003},{"id":"1167","name":"Fermata 2064 - ORMEA","lat":45.05089,"lng":7.68005},{"id":"2620","name":"Fermata 3400 - D'AZEGLIO CAP","lat":45.05122,"lng":7.68216}]}]},{"id":"10U","shortName":"10","longName":"corso Settembrini (feriale)/piazzale Caio Mario (festivo) - piazza Statuto","type":"Tram","color":"#CC9900","url":"http://www.gtt.to.it/cms/percorari/urbano?view=percorsi&bacino=U&linea=10&Regol=GE","directions":[{"directionId":"0","headsign":"MASSARI","geometry":[[45.03048,7.61551],[45.03131,7.61482],[45.03127,7.61431],[45.03087,7.61408],[45.02293,7.63457],[45.02255,7.63485],[45.02266,7.63544],[45.02399,7.63549],[45.05114,7.65469],[45.05142,7.6554],[45.05446,7.65708],[45.07268,7.67005],[45.07294,7.67021],[45.07381,7.66827],[45.07773,7.67075],[45.07905,7.67567],[45.0788,7.6761],[45.07902,7.67668],[45.08235,7.66655],[45.08671,7.66977],[45.08692,7.66951],[45.0893,7.67019],[45.08999,7.66992],[45.09056,7.67016],[45.09067,7.67061],[45.09134,7.67048],[45.09795,7.67209],[45.0995,7.67213],[45.09882,7.68057],[45.10431,7.68134],[45.10411,7.68483],[45.10554,7.68493],[45.10642,7.68045]],"stops":[{"id":"3617","name":"Fermata 820 - SETTEMBRINI","lat":45.0305,"lng":7.61553},{"id":"2156","name":"Fermata 2962 - SETTEMBRINI C.20","lat":45.02964,"lng":7.61719},{"id":"2168","name":"Fermata 2973 - SETTEMBRINI C.19","lat":45.02891,"lng":7.61908},{"id":"2160","name":"Fermata 2966 - SETTEMBRINI C.17","lat":45.02586,"lng":7.6267},{"id":"2162","name":"Fermata 2968 - SETTEMBRINI C.16","lat":45.02497,"lng":7.62909},{"id":"2165","name":"Fermata 2970 - SETTEMBRINI C.15","lat":45.02413,"lng":7.63132},{"id":"2167","name":"Fermata 2972 - SETTEMBRINI C.8","lat":45.02323,"lng":7.63371},{"id":"22","name":"Fermata 1013 - CAIO MARIO NORD","lat":45.02517,"lng":7.63639},{"id":"2021","name":"Fermata 284 - TRAIANO","lat":45.02645,"lng":7.63732},{"id":"529","name":"Fermata 147 - AGNELLI C.3","lat":45.02972,"lng":7.63968},{"id":"3054","name":"Fermata 5005 - COSENZA","lat":45.03443,"lng":7.64298},{"id":"2847","name":"Fermata 393 - SAN MARINO","lat":45.03822,"lng":7.64552},{"id":"2845","name":"Fermata 391 - FILADELFIA","lat":45.04092,"lng":7.6475},{"id":"2842","name":"Fermata 389 - SEBASTOPOLI","lat":45.04344,"lng":7.64929},{"id":"2840","name":"Fermata 387 - CAPRERA","lat":45.04783,"lng":7.65243},{"id":"2838","name":"Fermata 385 - CASERMA MONTE GRAPPA","lat":45.05116,"lng":7.65482},{"id":"2836","name":"Fermata 383 - FRATELLI CARLE","lat":45.05422,"lng":7.657},{"id":"2834","name":"Fermata 381 - VESPUCCI","lat":45.05729,"lng":7.65913},{"id":"2832","name":"Fermata 379 - EINAUDI","lat":45.05975,"lng":7.66089},{"id":"3454","name":"Fermata 670 - POLITECNICO","lat":45.06277,"lng":7.66304},{"id":"2830","name":"Fermata 377 - STATI UNITI","lat":45.06467,"lng":7.66444},{"id":"2415","name":"Fermata 32 - VITTORIO EMANUELE II","lat":45.06793,"lng":7.66676},{"id":"2198","name":"Fermata 30 - QUESTURA","lat":45.07124,"lng":7.66912},{"id":"463","name":"Fermata 1411 - XVIII DICEMBRE","lat":45.07425,"lng":7.66863},{"id":"2827","name":"Fermata 374 - STATUTO NORD","lat":45.07723,"lng":7.67046},{"id":"2825","name":"Fermata 372 - RONDÒ FORCA","lat":45.0789,"lng":7.67548},{"id":"1031","name":"Fermata 194 - INDUSTRIA","lat":45.08149,"lng":7.66957},{"id":"1011","name":"Fermata 192 - LIVORNO","lat":45.08236,"lng":7.66694},{"id":"1039","name":"Fermata 1947 - UMBRIA","lat":45.08546,"lng":7.6689},{"id":"846","name":"Fermata 1765 - TREVISO","lat":45.08747,"lng":7.66969},{"id":"844","name":"Fermata 1763 - MORTARA","lat":45.0913,"lng":7.67052},{"id":"842","name":"Fermata 1761 - BRIN","lat":45.09403,"lng":7.67111},{"id":"839","name":"Fermata 1759 - VEROLENGO","lat":45.09566,"lng":7.67159},{"id":"837","name":"Fermata 1757 - LARGO MASSAIA","lat":45.09734,"lng":7.67196},{"id":"1412","name":"Fermata 2272 - MONTALENGHE","lat":45.09927,"lng":7.67518},{"id":"1414","name":"Fermata 2274 - CHIESA DELLA SALUTE","lat":45.09887,"lng":7.6798},{"id":"2764","name":"Fermata 354 - COPPINO","lat":45.10071,"lng":7.68092},{"id":"2744","name":"Fermata 352 - GROSSETO","lat":45.10399,"lng":7.68141},{"id":"2723","name":"Fermata 350 - MASSARI CAP","lat":45.10645,"lng":7.68046}]},{"directionId":"1","headsign":"SETTEMBRINI","geometry":[[45.10642,7.68045],[45.1066,7.67936],[45.09903,7.67815],[45.09552,7.67517],[45.09459,7.67431],[45.09654,7.67207],[45.09635,7.67168],[45.09532,7.67145],[45.09516,7.67106],[45.09501,7.67128],[45.09085,7.6704],[45.08935,7.66975],[45.08916,7.66999],[45.08678,7.6693],[45.08659,7.66954],[45.08235,7.66655],[45.07972,7.67461],[45.07905,7.67567],[45.07796,7.67092],[45.07682,7.67001],[45.07369,7.66782],[45.07294,7.67021],[45.07268,7.67005],[45.05446,7.65708],[45.05312,7.65569],[45.05114,7.65469],[45.02316,7.63479],[45.03048,7.61551]],"stops":[{"id":"2723","name":"Fermata 350 - MASSARI CAP","lat":45.10645,"lng":7.68046},{"id":"2733","name":"Fermata 351 - GROSSETO","lat":45.1048,"lng":7.67889},{"id":"455","name":"Fermata 1404 - SOSPELLO","lat":45.10228,"lng":7.67857},{"id":"452","name":"Fermata 1402 - BREGLIO","lat":45.09922,"lng":7.67812},{"id":"459","name":"Fermata 1408 - SAORGIO","lat":45.09665,"lng":7.67605},{"id":"462","name":"Fermata 1410 - VIBÒ","lat":45.09526,"lng":7.67475},{"id":"2967","name":"Fermata 422 - LARGO GIACHINO SUD","lat":45.09601,"lng":7.67275},{"id":"838","name":"Fermata 1758 - VEROLENGO","lat":45.09569,"lng":7.6715},{"id":"841","name":"Fermata 1760 - BRIN","lat":45.09384,"lng":7.67101},{"id":"843","name":"Fermata 1762 - MORTARA","lat":45.09116,"lng":7.67039},{"id":"845","name":"Fermata 1764 - TREVISO","lat":45.08723,"lng":7.66954},{"id":"1293","name":"Fermata 2170 - UMBRIA","lat":45.08538,"lng":7.66867},{"id":"1003","name":"Fermata 1911 - REGINA MARGHERITA","lat":45.08338,"lng":7.66716},{"id":"1021","name":"Fermata 193 - INDUSTRIA","lat":45.08141,"lng":7.66931},{"id":"2824","name":"Fermata 371 - RONDÒ FORCA","lat":45.07893,"lng":7.67507},{"id":"2826","name":"Fermata 373 - STATUTO NORD","lat":45.07713,"lng":7.67032},{"id":"343","name":"Fermata 1298 - XVIII DICEMBRE","lat":45.07425,"lng":7.6681},{"id":"2087","name":"Fermata 29 - QUESTURA","lat":45.07084,"lng":7.66866},{"id":"2308","name":"Fermata 31 - VITTORIO EMANUELE II","lat":45.0678,"lng":7.6665},{"id":"2828","name":"Fermata 375 - STATI UNITI","lat":45.0652,"lng":7.66466},{"id":"2829","name":"Fermata 376 - POLITECNICO","lat":45.06258,"lng":7.66277},{"id":"2831","name":"Fermata 378 - EINAUDI","lat":45.06062,"lng":7.66136},{"id":"2833","name":"Fermata 380 - VESPUCCI","lat":45.05754,"lng":7.65918},{"id":"2835","name":"Fermata 382 - FRATELLI CARLE","lat":45.05405,"lng":7.65666},{"id":"2837","name":"Fermata 384 - CASERMA MONTE GRAPPA","lat":45.05094,"lng":7.65447},{"id":"2839","name":"Fermata 386 - CAPRERA","lat":45.04817,"lng":7.65246},{"id":"2841","name":"Fermata 388 - SEBASTOPOLI","lat":45.04402,"lng":7.64951},{"id":"2844","name":"Fermata 390 - FILADELFIA","lat":45.04142,"lng":7.64767},{"id":"2846","name":"Fermata 392 - SAN MARINO","lat":45.03736,"lng":7.64478},{"id":"2848","name":"Fermata 394 - COSENZA","lat":45.03521,"lng":7.64323},{"id":"540","name":"Fermata 148 - TAZZOLI","lat":45.03095,"lng":7.64006},{"id":"518","name":"Fermata 146 - AGNELLI C.3","lat":45.02904,"lng":7.6387},{"id":"20","name":"Fermata 1011 - TRAIANO","lat":45.02662,"lng":7.63701},{"id":"21","name":"Fermata 1012 - CAIO MARIO NORD","lat":45.02408,"lng":7.6352},{"id":"2171","name":"Fermata 2976 - SETTEMBRINI C.8","lat":45.0236,"lng":7.63361},{"id":"2166","name":"Fermata 2971 - SETTEMBRINI C.15","lat":45.02455,"lng":7.63115},{"id":"2163","name":"Fermata 2969 - SETTEMBRINI C.16","lat":45.02549,"lng":7.62873},{"id":"2161","name":"Fermata 2967 - SETTEMBRINI C.17","lat":45.02642,"lng":7.62635},{"id":"2157","name":"Fermata 2963 - SETTEMBRINI C.19","lat":45.0296,"lng":7.61817},{"id":"3617","name":"Fermata 820 - SETTEMBRINI","lat":45.0305,"lng":7.61553}]}]},{"id":"13U","shortName":"13","longName":"piazza Campanella - piazza Gran Madre","type":"Tram","color":"#CC9900","url":"http://www.gtt.to.it/cms/percorari/urbano?view=percorsi&bacino=U&linea=13&Regol=GE","directions":[{"directionId":"0","headsign":"CAMPANELLA","geometry":[[45.06268,7.69904],[45.07031,7.68684],[45.07021,7.68607],[45.07078,7.68409],[45.07026,7.67774],[45.0736,7.66841],[45.07404,7.66838],[45.07629,7.66995],[45.07676,7.66984],[45.08136,7.65627],[45.08117,7.65588],[45.07925,7.65596],[45.07973,7.65216],[45.08094,7.64695],[45.08193,7.63305],[45.08271,7.63266],[45.0822,7.63227]],"stops":[{"id":"3028","name":"Fermata 480 - GRAN MADRE CAP","lat":45.06271,"lng":7.69906},{"id":"3026","name":"Fermata 479 - VITTORIO VENETO","lat":45.06492,"lng":7.69527},{"id":"3024","name":"Fermata 477 - SANT'OTTAVIO","lat":45.0665,"lng":7.69282},{"id":"3022","name":"Fermata 475 - ROSSINI","lat":45.06806,"lng":7.69042},{"id":"3019","name":"Fermata 472 - CASTELLO","lat":45.07064,"lng":7.68488},{"id":"3017","name":"Fermata 470 - BERTOLA","lat":45.0705,"lng":7.68044},{"id":"3014","name":"Fermata 468 - SICCARDI","lat":45.07119,"lng":7.67521},{"id":"463","name":"Fermata 1411 - XVIII DICEMBRE","lat":45.07425,"lng":7.66863},{"id":"3012","name":"Fermata 466 - STATUTO","lat":45.07691,"lng":7.66943},{"id":"3009","name":"Fermata 463 - SCHINA","lat":45.07861,"lng":7.66416},{"id":"3007","name":"Fermata 461 - COLLEGNO","lat":45.07992,"lng":7.66061},{"id":"3004","name":"Fermata 459 - OSPEDALE MARIA VITTORIA","lat":45.08111,"lng":7.65703},{"id":"3002","name":"Fermata 457 - FABRIZI","lat":45.07997,"lng":7.65602},{"id":"2998","name":"Fermata 453 - RISORGIMENTO","lat":45.07974,"lng":7.65231},{"id":"2996","name":"Fermata 451 - SVIZZERA","lat":45.08013,"lng":7.65061},{"id":"2993","name":"Fermata 449 - LECCE","lat":45.08084,"lng":7.64769},{"id":"2991","name":"Fermata 447 - BELLI","lat":45.08107,"lng":7.64505},{"id":"2989","name":"Fermata 445 - GHEMME","lat":45.08122,"lng":7.64214},{"id":"2987","name":"Fermata 443 - MONTE GRAPPA","lat":45.08151,"lng":7.63871},{"id":"2985","name":"Fermata 441 - CAPELLI","lat":45.0818,"lng":7.63538},{"id":"2982","name":"Fermata 439 - CAMPANELLA CAP","lat":45.0822,"lng":7.63227}]},{"directionId":"1","headsign":"BORGO PO, PIAZZA GRAN MADRE","geometry":[[45.0822,7.63227],[45.08094,7.64695],[45.07973,7.65216],[45.07921,7.65647],[45.08124,7.65618],[45.08127,7.65652],[45.07649,7.66956],[45.0736,7.6679],[45.07026,7.67774],[45.07078,7.68409],[45.07021,7.68607],[45.07031,7.68684],[45.06294,7.69825],[45.06213,7.699],[45.06228,7.69957],[45.06268,7.69904]],"stops":[{"id":"2982","name":"Fermata 439 - CAMPANELLA CAP","lat":45.0822,"lng":7.63227},{"id":"2984","name":"Fermata 440 - CAPELLI","lat":45.08175,"lng":7.63507},{"id":"2986","name":"Fermata 442 - MONTE GRAPPA","lat":45.0815,"lng":7.63801},{"id":"2988","name":"Fermata 444 - GHEMME","lat":45.08115,"lng":7.64168},{"id":"2990","name":"Fermata 446 - BELLI","lat":45.08103,"lng":7.64478},{"id":"2992","name":"Fermata 448 - LECCE","lat":45.08094,"lng":7.6466},{"id":"2995","name":"Fermata 450 - SVIZZERA","lat":45.08023,"lng":7.64996},{"id":"2997","name":"Fermata 452 - RISORGIMENTO","lat":45.07963,"lng":7.65279},{"id":"170","name":"Fermata 1144 - FABRIZI","lat":45.0801,"lng":7.65638},{"id":"3003","name":"Fermata 458 - OSPEDALE MARIA VITTORIA","lat":45.08117,"lng":7.65678},{"id":"3006","name":"Fermata 460 - COLLEGNO","lat":45.08005,"lng":7.65991},{"id":"3008","name":"Fermata 462 - SCHINA","lat":45.07867,"lng":7.6637},{"id":"1653","name":"Fermata 25 - STATUTO","lat":45.0765,"lng":7.66954},{"id":"343","name":"Fermata 1298 - XVIII DICEMBRE","lat":45.07425,"lng":7.6681},{"id":"3013","name":"Fermata 467 - SICCARDI","lat":45.07144,"lng":7.67444},{"id":"3015","name":"Fermata 469 - BERTOLA","lat":45.07056,"lng":7.68136},{"id":"3018","name":"Fermata 471 - CASTELLO","lat":45.07036,"lng":7.6855},{"id":"3021","name":"Fermata 474 - ACCADEMIA ALBERTINA","lat":45.06828,"lng":7.69003},{"id":"3023","name":"Fermata 476 - SANT'OTTAVIO","lat":45.06672,"lng":7.69244},{"id":"3025","name":"Fermata 478 - VITTORIO VENETO","lat":45.06466,"lng":7.69561},{"id":"1577","name":"Fermata 2427 - BONSIGNORE","lat":45.06234,"lng":7.69879},{"id":"3028","name":"Fermata 480 - GRAN MADRE CAP","lat":45.06271,"lng":7.69906}]}]},{"id":"15U","shortName":"15","longName":"via Brissogne - piazza Coriolano","type":"Tram","color":"#CC9900","url":"http://www.gtt.to.it/cms/percorari/urbano?view=percorsi&bacino=U&linea=15&Regol=GE","directions":[{"directionId":"0","headsign":"BORGATA LESNA, VIA BRISSOGNE","geometry":[[45.08131,7.73022],[45.07813,7.73249],[45.07553,7.73071],[45.07538,7.72741],[45.0714,7.70309],[45.06523,7.695],[45.07027,7.68696],[45.07021,7.68607],[45.07078,7.68422],[45.07054,7.68161],[45.06534,7.67769],[45.0661,7.67512],[45.05738,7.66874],[45.06491,7.64932],[45.06448,7.64486],[45.06459,7.63623],[45.06423,7.6284],[45.06449,7.62145],[45.06271,7.62064],[45.06264,7.62105]],"stops":[{"id":"3203","name":"Fermata 591 - CORIOLANO CAP","lat":45.08132,"lng":7.73022},{"id":"3202","name":"Fermata 590 - SASSI-SUPERGA","lat":45.08075,"lng":7.73079},{"id":"3200","name":"Fermata 588 - MONGRENO","lat":45.0786,"lng":7.73218},{"id":"3198","name":"Fermata 586 - PASINI","lat":45.07547,"lng":7.72987},{"id":"3196","name":"Fermata 584 - CADORE","lat":45.07491,"lng":7.72432},{"id":"3194","name":"Fermata 582 - PALLANZA","lat":45.07439,"lng":7.72131},{"id":"3192","name":"Fermata 580 - BRIANZA","lat":45.07376,"lng":7.71755},{"id":"3189","name":"Fermata 578 - CHIETI","lat":45.07314,"lng":7.714},{"id":"3185","name":"Fermata 574 - TORTONA","lat":45.07226,"lng":7.70868},{"id":"3183","name":"Fermata 572 - RICASOLI","lat":45.07179,"lng":7.70559},{"id":"3181","name":"Fermata 570 - REGINA MARGHERITA","lat":45.071,"lng":7.70241},{"id":"3174","name":"Fermata 564 - SANTA GIULIA","lat":45.06915,"lng":7.7001},{"id":"3175","name":"Fermata 565 - SAN MAURIZIO","lat":45.06733,"lng":7.6977},{"id":"3173","name":"Fermata 563 - VITTORIO VENETO NORD","lat":45.06571,"lng":7.69567},{"id":"3024","name":"Fermata 477 - SANT'OTTAVIO","lat":45.0665,"lng":7.69282},{"id":"3022","name":"Fermata 475 - ROSSINI","lat":45.06806,"lng":7.69042},{"id":"3019","name":"Fermata 472 - CASTELLO","lat":45.07064,"lng":7.68488},{"id":"1619","name":"Fermata 246 - BERTOLA","lat":45.06959,"lng":7.68079},{"id":"1637","name":"Fermata 248 - ARCIVESCOVADO","lat":45.06749,"lng":7.67923},{"id":"760","name":"Fermata 1682 - ARSENALE","lat":45.06556,"lng":7.67712},{"id":"3137","name":"Fermata 525 - VITTORIO EMANUELE II","lat":45.06418,"lng":7.67363},{"id":"1732","name":"Fermata 257 - LEGNANO","lat":45.06094,"lng":7.6713},{"id":"1762","name":"Fermata 260 - EINAUDI","lat":45.05764,"lng":7.66901},{"id":"2970","name":"Fermata 426 - GALILEO FERRARIS","lat":45.05818,"lng":7.66654},{"id":"2972","name":"Fermata 428 - DE GASPERI","lat":45.05916,"lng":7.66404},{"id":"3369","name":"Fermata 616 - DUCA DEGLI ABRUZZI","lat":45.06006,"lng":7.66172},{"id":"3380","name":"Fermata 617 - MEDITERRANEO","lat":45.06126,"lng":7.65858},{"id":"3389","name":"Fermata 618 - FERRUCCI","lat":45.06242,"lng":7.65556},{"id":"3398","name":"Fermata 619 - SAN PAOLO","lat":45.06358,"lng":7.65256},{"id":"2665","name":"Fermata 3447 - SABOTINO","lat":45.06449,"lng":7.6502},{"id":"3158","name":"Fermata 548 - SABOTINO OVEST","lat":45.06474,"lng":7.64734},{"id":"3155","name":"Fermata 546 - RACCONIGI","lat":45.06454,"lng":7.64545},{"id":"3153","name":"Fermata 544 - GENOLA","lat":45.06455,"lng":7.64103},{"id":"3151","name":"Fermata 540 - TRAPANI","lat":45.0646,"lng":7.63731},{"id":"3149","name":"Fermata 538 - SERAO","lat":45.06455,"lng":7.63417},{"id":"3147","name":"Fermata 536 - MONTE CUCCO","lat":45.06444,"lng":7.6314},{"id":"3145","name":"Fermata 534 - BRUNELLESCHI","lat":45.06429,"lng":7.62687},{"id":"3143","name":"Fermata 532 - BIONAZ","lat":45.06448,"lng":7.62192},{"id":"3142","name":"Fermata 531 - BRISSOGNE CAP","lat":45.06264,"lng":7.62105}]},{"directionId":"1","headsign":"SASSI, PIAZZA CORIOLANO","geometry":[[45.06264,7.62105],[45.06258,7.62143],[45.06445,7.62228],[45.06423,7.6284],[45.06459,7.63623],[45.06448,7.64486],[45.06482,7.64859],[45.05738,7.66874],[45.0661,7.67512],[45.06488,7.67895],[45.07067,7.68297],[45.07078,7.68422],[45.07021,7.68607],[45.07027,7.68696],[45.06399,7.69666],[45.07191,7.70698],[45.07538,7.72741],[45.07534,7.73063],[45.07813,7.73249],[45.08187,7.73013],[45.08167,7.72973],[45.08131,7.73022]],"stops":[{"id":"3142","name":"Fermata 531 - BRISSOGNE CAP","lat":45.06264,"lng":7.62105},{"id":"3144","name":"Fermata 533 - DE SANCTIS","lat":45.0644,"lng":7.623},{"id":"3146","name":"Fermata 535 - SACRA SAN MICHELE","lat":45.06416,"lng":7.62882},{"id":"3150","name":"Fermata 539 - MONTE CUCCO","lat":45.06444,"lng":7.63238},{"id":"3152","name":"Fermata 541 - TRAPANI","lat":45.06455,"lng":7.63558},{"id":"3154","name":"Fermata 545 - GENOLA","lat":45.06451,"lng":7.6406},{"id":"3157","name":"Fermata 547 - RACCONIGI","lat":45.06448,"lng":7.64413},{"id":"3159","name":"Fermata 549 - SABOTINO OVEST","lat":45.06478,"lng":7.64811},{"id":"2663","name":"Fermata 3445 - SABOTINO","lat":45.06422,"lng":7.65055},{"id":"3404","name":"Fermata 621 - SAN PAOLO","lat":45.06338,"lng":7.65272},{"id":"3405","name":"Fermata 622 - FERRUCCI","lat":45.06215,"lng":7.65569},{"id":"3406","name":"Fermata 623 - MEDITERRANEO","lat":45.06143,"lng":7.65758},{"id":"3407","name":"Fermata 624 - DUCA DEGLI ABRUZZI","lat":45.06039,"lng":7.66029},{"id":"2971","name":"Fermata 427 - GALILEO FERRARIS","lat":45.05855,"lng":7.66502},{"id":"2969","name":"Fermata 425 - RE UMBERTO","lat":45.05746,"lng":7.66802},{"id":"1721","name":"Fermata 256 - LEGNANO","lat":45.0608,"lng":7.67152},{"id":"3148","name":"Fermata 537 - VITTORIO EMANUELE II","lat":45.06423,"lng":7.67396},{"id":"1109","name":"Fermata 2010 - ARSENALE","lat":45.06567,"lng":7.67678},{"id":"1647","name":"Fermata 249 - ARCIVESCOVADO","lat":45.06687,"lng":7.68041},{"id":"1626","name":"Fermata 247 - BERTOLA","lat":45.06945,"lng":7.68216},{"id":"3018","name":"Fermata 471 - CASTELLO","lat":45.07036,"lng":7.6855},{"id":"3021","name":"Fermata 474 - ACCADEMIA ALBERTINA","lat":45.06828,"lng":7.69003},{"id":"3023","name":"Fermata 476 - SANT'OTTAVIO","lat":45.06672,"lng":7.69244},{"id":"3025","name":"Fermata 478 - VITTORIO VENETO","lat":45.06466,"lng":7.69561},{"id":"3176","name":"Fermata 566 - SAN MAURIZIO","lat":45.06614,"lng":7.69944},{"id":"3177","name":"Fermata 567 - SANTA GIULIA","lat":45.06774,"lng":7.70151},{"id":"3178","name":"Fermata 568 - REGINA MARGHERITA","lat":45.06954,"lng":7.70383},{"id":"3182","name":"Fermata 571 - RICASOLI","lat":45.07095,"lng":7.70567},{"id":"3184","name":"Fermata 573 - TORTONA","lat":45.07209,"lng":7.70832},{"id":"3188","name":"Fermata 577 - CHIETI","lat":45.07294,"lng":7.71335},{"id":"3190","name":"Fermata 579 - BRIANZA","lat":45.07374,"lng":7.71804},{"id":"3193","name":"Fermata 581 - PALLANZA","lat":45.0743,"lng":7.72134},{"id":"3195","name":"Fermata 583 - CADORE","lat":45.07485,"lng":7.7246},{"id":"3197","name":"Fermata 585 - PASINI","lat":45.07539,"lng":7.72987},{"id":"3199","name":"Fermata 587 - MONGRENO","lat":45.07891,"lng":7.73215},{"id":"3201","name":"Fermata 589 - SASSI-SUPERGA","lat":45.08104,"lng":7.73076},{"id":"3203","name":"Fermata 591 - CORIOLANO CAP","lat":45.08132,"lng":7.73022}]}]},{"id":"16CDU","shortName":"16 CD","longName":"circolare destra, piazza Sabotino - piazza della Repubblica - piazza Sabotino","type":"Tram","color":"#CC9900","url":"http://www.gtt.to.it/cms/percorari/urbano?view=percorsi&bacino=U&linea=16CD&Regol=GE","directions":[{"directionId":"0","headsign":"CIRCOLARE DESTRA, PIAZZA SABOTINO","geometry":[[45.07643,7.6845],[45.07329,7.69375],[45.0716,7.69283],[45.06619,7.69804],[45.06364,7.69489],[45.05874,7.69078],[45.05933,7.68838],[45.05915,7.68787],[45.05222,7.68275],[45.05471,7.67267],[45.0553,7.67128],[45.05729,7.66867],[45.06446,7.65033]],"stops":[{"id":"1108","name":"Fermata 201 - PORTA PALAZZO EST","lat":45.07642,"lng":7.68449},{"id":"1130","name":"Fermata 203 - XI FEBBRAIO","lat":45.07545,"lng":7.68717},{"id":"1151","name":"Fermata 205 - GIARDINI REALI","lat":45.07425,"lng":7.69081},{"id":"1173","name":"Fermata 207 - ROSSINI","lat":45.07342,"lng":7.69333},{"id":"1784","name":"Fermata 2620 - SANTA GIULIA","lat":45.07218,"lng":7.69303},{"id":"3223","name":"Fermata 601 - MOLE ANTONELLIANA","lat":45.07059,"lng":7.69381},{"id":"3234","name":"Fermata 602 - PALAZZO NUOVO","lat":45.06888,"lng":7.69551},{"id":"3244","name":"Fermata 603 - VANCHIGLIA","lat":45.06711,"lng":7.69724},{"id":"3255","name":"Fermata 604 - VITTORIO VENETO","lat":45.06491,"lng":7.69643},{"id":"3265","name":"Fermata 605 - GIOLITTI","lat":45.06242,"lng":7.69379},{"id":"3276","name":"Fermata 606 - MAZZINI","lat":45.06026,"lng":7.69203},{"id":"3287","name":"Fermata 607 - DELLA ROCCA","lat":45.05913,"lng":7.6891},{"id":"3305","name":"Fermata 609 - PELLICO","lat":45.05667,"lng":7.68604},{"id":"3316","name":"Fermata 610 - VALENTINO","lat":45.05493,"lng":7.68479},{"id":"3327","name":"Fermata 611 - GIURIA","lat":45.05248,"lng":7.68183},{"id":"3338","name":"Fermata 612 - MADAMA CRISTINA EST","lat":45.05311,"lng":7.68003},{"id":"3348","name":"Fermata 613 - NIZZA","lat":45.05387,"lng":7.67611},{"id":"3357","name":"Fermata 614 - TURATI","lat":45.05567,"lng":7.67097},{"id":"3360","name":"Fermata 615 - RE UMBERTO","lat":45.0569,"lng":7.66931},{"id":"2970","name":"Fermata 426 - GALILEO FERRARIS","lat":45.05818,"lng":7.66654},{"id":"2972","name":"Fermata 428 - DE GASPERI","lat":45.05916,"lng":7.66404},{"id":"3369","name":"Fermata 616 - DUCA DEGLI ABRUZZI","lat":45.06006,"lng":7.66172},{"id":"3380","name":"Fermata 617 - MEDITERRANEO","lat":45.06126,"lng":7.65858},{"id":"3389","name":"Fermata 618 - FERRUCCI","lat":45.06242,"lng":7.65556},{"id":"3398","name":"Fermata 619 - SAN PAOLO","lat":45.06358,"lng":7.65256},{"id":"3204","name":"Fermata 592 - SABOTINO CAP","lat":45.06448,"lng":7.65035}]},{"directionId":"1","headsign":"CIRCOLARE DESTRA, PORTA PALAZZO","geometry":[[45.06446,7.65033],[45.06461,7.64966],[45.06496,7.64961],[45.07068,7.65455],[45.07106,7.65547],[45.07609,7.65654],[45.08355,7.65575],[45.08563,7.65635],[45.07643,7.6845]],"stops":[{"id":"3204","name":"Fermata 592 - SABOTINO CAP","lat":45.06448,"lng":7.65035},{"id":"3205","name":"Fermata 593 - VIGONE","lat":45.06662,"lng":7.65122},{"id":"3206","name":"Fermata 594 - ADRIANO OVEST","lat":45.0696,"lng":7.65383},{"id":"3207","name":"Fermata 595 - ADRIANO","lat":45.07273,"lng":7.65586},{"id":"3209","name":"Fermata 597 - BERNINI","lat":45.07729,"lng":7.65639},{"id":"3001","name":"Fermata 456 - FABRIZI","lat":45.0802,"lng":7.6562},{"id":"2214","name":"Fermata 3013 - OSPEDALE MARIA VITTORIA","lat":45.08181,"lng":7.65586},{"id":"2212","name":"Fermata 3011 - MARTINETTO","lat":45.08536,"lng":7.6561},{"id":"958","name":"Fermata 187 - TASSONI","lat":45.08539,"lng":7.65724},{"id":"979","name":"Fermata 189 - AVELLINO","lat":45.08392,"lng":7.66147},{"id":"1001","name":"Fermata 191 - LIVORNO","lat":45.08243,"lng":7.66617},{"id":"1021","name":"Fermata 193 - INDUSTRIA","lat":45.08141,"lng":7.66931},{"id":"1042","name":"Fermata 195 - RONDÒ FORCA OVEST","lat":45.07933,"lng":7.67548},{"id":"1063","name":"Fermata 197 - OSPEDALE COTTOLENGO","lat":45.07813,"lng":7.67925},{"id":"1085","name":"Fermata 199 - PORTA PALAZZO","lat":45.0771,"lng":7.68215},{"id":"1108","name":"Fermata 201 - PORTA PALAZZO EST","lat":45.07642,"lng":7.68449}]}]},{"id":"16CSU","shortName":"16 CS","longName":"circolare sinistra, piazza Sabotino - piazza della Repubblica - piazza Sabotino","type":"Tram","color":"#CC9900","url":"http://www.gtt.to.it/cms/percorari/urbano?view=percorsi&bacino=U&linea=16CS&Regol=GE","directions":[{"directionId":"0","headsign":"CIRCOLARE SINISTRA, PIAZZA SABOTINO","geometry":[[45.07703,7.68266],[45.08572,7.65614],[45.08367,7.65555],[45.07924,7.65614],[45.07601,7.65604],[45.07586,7.65629],[45.0722,7.6557],[45.07085,7.65521],[45.07068,7.65455],[45.06496,7.64961],[45.06484,7.64898],[45.06413,7.65068]],"stops":[{"id":"1119","name":"Fermata 202 - PORTA PALAZZO OVEST","lat":45.07711,"lng":7.68271},{"id":"1074","name":"Fermata 198 - OSPEDALE COTTOLENGO","lat":45.07836,"lng":7.67881},{"id":"1052","name":"Fermata 196 - RONDÒ FORCA OVEST","lat":45.07957,"lng":7.67528},{"id":"1031","name":"Fermata 194 - INDUSTRIA","lat":45.08149,"lng":7.66957},{"id":"1011","name":"Fermata 192 - LIVORNO","lat":45.08236,"lng":7.66694},{"id":"990","name":"Fermata 190 - AVELLINO","lat":45.08391,"lng":7.66228},{"id":"969","name":"Fermata 188 - TASSONI","lat":45.0857,"lng":7.65675},{"id":"2211","name":"Fermata 3010 - MARTINETTO","lat":45.08518,"lng":7.65582},{"id":"2213","name":"Fermata 3012 - OSPEDALE MARIA VITTORIA","lat":45.08173,"lng":7.65579},{"id":"3002","name":"Fermata 457 - FABRIZI","lat":45.07997,"lng":7.65602},{"id":"3428","name":"Fermata 644 - BERNINI","lat":45.077,"lng":7.6562},{"id":"3430","name":"Fermata 646 - ADRIANO","lat":45.07246,"lng":7.65566},{"id":"3431","name":"Fermata 648 - VINADIO","lat":45.06899,"lng":7.6529},{"id":"3432","name":"Fermata 649 - SABOTINO NORD","lat":45.06512,"lng":7.64974},{"id":"3403","name":"Fermata 620 - SABOTINO CAP","lat":45.06411,"lng":7.65066}]},{"directionId":"1","headsign":"CIRCOLARE SINISTRA, PORTA PALAZZO","geometry":[[45.06413,7.65068],[45.05729,7.66867],[45.0553,7.67128],[45.05462,7.67291],[45.05222,7.68283],[45.05923,7.68797],[45.05874,7.69078],[45.06364,7.69489],[45.06619,7.69804],[45.0716,7.69283],[45.07339,7.69379],[45.07703,7.68266]],"stops":[{"id":"3403","name":"Fermata 620 - SABOTINO CAP","lat":45.06411,"lng":7.65066},{"id":"3404","name":"Fermata 621 - SAN PAOLO","lat":45.06338,"lng":7.65272},{"id":"3405","name":"Fermata 622 - FERRUCCI","lat":45.06215,"lng":7.65569},{"id":"3406","name":"Fermata 623 - MEDITERRANEO","lat":45.06143,"lng":7.65758},{"id":"3407","name":"Fermata 624 - DUCA DEGLI ABRUZZI","lat":45.06039,"lng":7.66029},{"id":"2971","name":"Fermata 427 - GALILEO FERRARIS","lat":45.05855,"lng":7.66502},{"id":"2969","name":"Fermata 425 - RE UMBERTO","lat":45.05746,"lng":7.66802},{"id":"3408","name":"Fermata 625 - TURATI","lat":45.05537,"lng":7.67089},{"id":"3409","name":"Fermata 626 - NIZZA","lat":45.05371,"lng":7.67659},{"id":"3410","name":"Fermata 627 - MADAMA CRISTINA","lat":45.05322,"lng":7.67939},{"id":"3411","name":"Fermata 628 - GIURIA","lat":45.05234,"lng":7.68202},{"id":"3412","name":"Fermata 629 - VALENTINO","lat":45.05447,"lng":7.68451},{"id":"3414","name":"Fermata 630 - PELLICO","lat":45.05644,"lng":7.68597},{"id":"3415","name":"Fermata 631 - VITTORIO EMANUELE II","lat":45.05902,"lng":7.68784},{"id":"3416","name":"Fermata 632 - DELLA ROCCA","lat":45.05867,"lng":7.69004},{"id":"3417","name":"Fermata 633 - MAZZINI","lat":45.06064,"lng":7.69239},{"id":"3418","name":"Fermata 634 - GIOLITTI","lat":45.06258,"lng":7.69398},{"id":"3419","name":"Fermata 635 - VITTORIO VENETO EST","lat":45.06516,"lng":7.69683},{"id":"3420","name":"Fermata 636 - VANCHIGLIA","lat":45.06691,"lng":7.6975},{"id":"3421","name":"Fermata 637 - PALAZZO NUOVO","lat":45.06922,"lng":7.69523},{"id":"3422","name":"Fermata 638 - MOLE ANTONELLIANA","lat":45.07081,"lng":7.69363},{"id":"3424","name":"Fermata 640 - REGINA MARGHERITA","lat":45.07306,"lng":7.69368},{"id":"1162","name":"Fermata 206 - GIARDINI REALI","lat":45.07447,"lng":7.69064},{"id":"1140","name":"Fermata 204 - XI FEBBRAIO","lat":45.07571,"lng":7.68688},{"id":"1119","name":"Fermata 202 - PORTA PALAZZO OVEST","lat":45.07711,"lng":7.68271}]}]},{"id":"18U","shortName":"18","longName":"piazza Sofia - piazzale Caio Mario","type":"Otobüs","color":"#FF9900","url":"http://www.gtt.to.it/cms/percorari/urbano?view=percorsi&bacino=U&linea=18&Regol=GE","directions":[{"directionId":"0","headsign":"REGIO PARCO, PIAZZA SOFIA","geometry":[[45.02432,7.63638],[45.02429,7.637],[45.02853,7.64175],[45.02495,7.65228],[45.02777,7.65374],[45.02674,7.65646],[45.02546,7.6566],[45.02524,7.65611],[45.0263,7.65297],[45.02495,7.65228],[45.02322,7.65745],[45.02156,7.66502],[45.0372,7.67171],[45.04242,7.67258],[45.04265,7.67231],[45.06586,7.68861],[45.06615,7.6893],[45.06673,7.68922],[45.07328,7.69382],[45.07593,7.68657],[45.07945,7.68847],[45.08332,7.69737],[45.08508,7.69576],[45.08635,7.69351],[45.08683,7.69357],[45.08861,7.69787],[45.09262,7.70313],[45.09273,7.70385],[45.09493,7.70164],[45.09721,7.70319],[45.0937,7.71155],[45.09395,7.71509],[45.09363,7.71574],[45.09434,7.71685]],"stops":[{"id":"106","name":"Fermata 1083 - CAIO MARIO CAP","lat":45.02427,"lng":7.63623},{"id":"2010","name":"Fermata 283 - TRAIANO","lat":45.02565,"lng":7.63872},{"id":"3590","name":"Fermata 801 - CASANA","lat":45.02782,"lng":7.64384},{"id":"3587","name":"Fermata 799 - SIDOLI","lat":45.02676,"lng":7.64685},{"id":"3585","name":"Fermata 797 - STADIO BASEBALL","lat":45.02504,"lng":7.65178},{"id":"1763","name":"Fermata 2601 - PIO VII","lat":45.02733,"lng":7.65478},{"id":"1765","name":"Fermata 2603 - STAZIONE LINGOTTO","lat":45.02623,"lng":7.65655},{"id":"1767","name":"Fermata 2605 - MONTE CORNO","lat":45.02574,"lng":7.65476},{"id":"3583","name":"Fermata 795 - CAIO PLINIO","lat":45.02398,"lng":7.65487},{"id":"3618","name":"Fermata 821 - TROFARELLO","lat":45.02239,"lng":7.66094},{"id":"3580","name":"Fermata 792 - NIZZA","lat":45.02201,"lng":7.66284},{"id":"3315","name":"Fermata 61 - SOMMARIVA","lat":45.02294,"lng":7.66567},{"id":"3402","name":"Fermata 62 - VALENZA","lat":45.02505,"lng":7.66654},{"id":"3413","name":"Fermata 63 - MILLEFONTI","lat":45.02858,"lng":7.66805},{"id":"3423","name":"Fermata 64 - GARESSIO","lat":45.03063,"lng":7.66891},{"id":"3433","name":"Fermata 65 - FINALMARINA","lat":45.03216,"lng":7.66955},{"id":"3444","name":"Fermata 66 - BAIARDI","lat":45.03485,"lng":7.67066},{"id":"3453","name":"Fermata 67 - SPEZIA","lat":45.03718,"lng":7.67175},{"id":"1651","name":"Fermata 2495 - TEPICE","lat":45.03971,"lng":7.67213},{"id":"3464","name":"Fermata 68 - MOLINETTE OVEST","lat":45.04163,"lng":7.67255},{"id":"3579","name":"Fermata 791 - GRAF","lat":45.04405,"lng":7.67334},{"id":"3576","name":"Fermata 789 - PETITTI","lat":45.04633,"lng":7.67491},{"id":"3574","name":"Fermata 787 - DONIZETTI","lat":45.04954,"lng":7.67718},{"id":"3572","name":"Fermata 785 - VALPERGA CALUSO","lat":45.05233,"lng":7.67929},{"id":"3570","name":"Fermata 783 - MARCONI","lat":45.05492,"lng":7.68096},{"id":"3568","name":"Fermata 781 - PELLICO","lat":45.05757,"lng":7.68286},{"id":"3548","name":"Fermata 761 - VITTORIO EMANUELE II","lat":45.06109,"lng":7.6853},{"id":"3562","name":"Fermata 775 - CAVOUR","lat":45.06346,"lng":7.68697},{"id":"3560","name":"Fermata 773 - GIOLITTI","lat":45.06531,"lng":7.68827},{"id":"3558","name":"Fermata 770 - PO","lat":45.06764,"lng":7.68987},{"id":"2765","name":"Fermata 3540 - VERDI","lat":45.06878,"lng":7.69068},{"id":"3555","name":"Fermata 768 - AUDITORIUM","lat":45.07133,"lng":7.69247},{"id":"3424","name":"Fermata 640 - REGINA MARGHERITA","lat":45.07306,"lng":7.69368},{"id":"1162","name":"Fermata 206 - GIARDINI REALI","lat":45.07447,"lng":7.69064},{"id":"3554","name":"Fermata 767 - FIOCHETTO","lat":45.07632,"lng":7.68684},{"id":"3552","name":"Fermata 765 - DORA SAVONA","lat":45.07882,"lng":7.68825},{"id":"3549","name":"Fermata 762 - PARMA","lat":45.08072,"lng":7.69164},{"id":"3547","name":"Fermata 760 - PADOVA","lat":45.08264,"lng":7.69589},{"id":"2641","name":"Fermata 3424 - BOLOGNA","lat":45.08349,"lng":7.69728},{"id":"1457","name":"Fermata 2315 - PALERMO","lat":45.08631,"lng":7.69378},{"id":"2616","name":"Fermata 3397 - CLEMENTI","lat":45.08784,"lng":7.69607},{"id":"2739","name":"Fermata 3515 - BOTTESINI","lat":45.0893,"lng":7.69884},{"id":"2740","name":"Fermata 3516 - VIRIGLIO","lat":45.09144,"lng":7.70169},{"id":"694","name":"Fermata 1621 - AMBROSIO","lat":45.09388,"lng":7.70269},{"id":"690","name":"Fermata 1618 - OSPEDALE GIOVANNI BOSCO","lat":45.09639,"lng":7.70264},{"id":"689","name":"Fermata 1617 - CILEA","lat":45.09673,"lng":7.70416},{"id":"687","name":"Fermata 1615 - CORELLI","lat":45.09521,"lng":7.7076},{"id":"678","name":"Fermata 1607 - ANCINA","lat":45.09397,"lng":7.71058},{"id":"676","name":"Fermata 1605 - CRAVERO","lat":45.09379,"lng":7.71452},{"id":"3532","name":"Fermata 747 - SOFIA CAP","lat":45.09432,"lng":7.71687}]},{"directionId":"1","headsign":"MIRAFIORI SUD, P.LE CAIO MARIO","geometry":[[45.09434,7.71685],[45.09497,7.71769],[45.09535,7.71744],[45.09403,7.71562],[45.0937,7.71155],[45.09721,7.70319],[45.09493,7.70164],[45.09316,7.70321],[45.09262,7.70313],[45.08866,7.69791],[45.08676,7.69317],[45.08508,7.69576],[45.08324,7.69718],[45.07945,7.68847],[45.07576,7.68651],[45.0732,7.69378],[45.06673,7.68922],[45.06642,7.68852],[45.06586,7.68861],[45.04265,7.67231],[45.0428,7.67099],[45.0425,7.67122],[45.02198,7.66333],[45.02358,7.6563],[45.02481,7.65605],[45.02546,7.6566],[45.02661,7.65654],[45.02777,7.65374],[45.02495,7.65228],[45.02853,7.64175],[45.02343,7.63609],[45.02305,7.63542],[45.02377,7.63539],[45.02432,7.63638]],"stops":[{"id":"3532","name":"Fermata 747 - SOFIA CAP","lat":45.09432,"lng":7.71687},{"id":"3533","name":"Fermata 748 - SOFIA","lat":45.09435,"lng":7.71594},{"id":"675","name":"Fermata 1604 - CRAVERO","lat":45.09394,"lng":7.71358},{"id":"677","name":"Fermata 1606 - ANCINA","lat":45.09416,"lng":7.71064},{"id":"686","name":"Fermata 1614 - CORELLI","lat":45.0954,"lng":7.70765},{"id":"688","name":"Fermata 1616 - CILEA","lat":45.09652,"lng":7.70517},{"id":"691","name":"Fermata 1619 - OSPEDALE GIOVANNI BOSCO","lat":45.09615,"lng":7.70239},{"id":"2741","name":"Fermata 3517 - RESPIGHI","lat":45.09333,"lng":7.70289},{"id":"2613","name":"Fermata 3394 - VIRIGLIO","lat":45.09135,"lng":7.70132},{"id":"2614","name":"Fermata 3395 - BOTTESINI","lat":45.08927,"lng":7.69854},{"id":"2615","name":"Fermata 3396 - CLEMENTI","lat":45.08773,"lng":7.69542},{"id":"1456","name":"Fermata 2314 - PALERMO","lat":45.0862,"lng":7.69373},{"id":"2787","name":"Fermata 3561 - COMO","lat":45.08415,"lng":7.69612},{"id":"3545","name":"Fermata 759 - PADOVA","lat":45.08221,"lng":7.69487},{"id":"3550","name":"Fermata 763 - PARMA","lat":45.08032,"lng":7.69069},{"id":"3551","name":"Fermata 764 - DORA SAVONA","lat":45.07875,"lng":7.68811},{"id":"3553","name":"Fermata 766 - FIOCHETTO","lat":45.07616,"lng":7.68663},{"id":"1151","name":"Fermata 205 - GIARDINI REALI","lat":45.07425,"lng":7.69081},{"id":"1173","name":"Fermata 207 - ROSSINI","lat":45.07342,"lng":7.69333},{"id":"3212","name":"Fermata 600 - AUDITORIUM","lat":45.07086,"lng":7.69209},{"id":"3556","name":"Fermata 769 - PO","lat":45.06872,"lng":7.69059},{"id":"3559","name":"Fermata 772 - GIOLITTI","lat":45.06557,"lng":7.6884},{"id":"3561","name":"Fermata 774 - CAVOUR","lat":45.06395,"lng":7.68713},{"id":"3564","name":"Fermata 778 - VITTORIO EMANUELE II","lat":45.06108,"lng":7.68522},{"id":"3567","name":"Fermata 780 - PELLICO","lat":45.05799,"lng":7.683},{"id":"3569","name":"Fermata 782 - MARCONI","lat":45.05616,"lng":7.68168},{"id":"3571","name":"Fermata 784 - VALPERGA CALUSO","lat":45.0536,"lng":7.67995},{"id":"3573","name":"Fermata 786 - DONIZETTI","lat":45.05033,"lng":7.67761},{"id":"3575","name":"Fermata 788 - FOSCOLO","lat":45.04794,"lng":7.67607},{"id":"3578","name":"Fermata 790 - GRAF","lat":45.04424,"lng":7.67338},{"id":"3526","name":"Fermata 739 - CARDUCCI","lat":45.04173,"lng":7.67083},{"id":"3049","name":"Fermata 50 - TEPICE","lat":45.03981,"lng":7.67008},{"id":"3813","name":"Fermata 979 - SPEZIA","lat":45.03791,"lng":7.66935},{"id":"3110","name":"Fermata 51 - BISALTA","lat":45.03639,"lng":7.66877},{"id":"3132","name":"Fermata 52 - BIGLIERI","lat":45.03397,"lng":7.66782},{"id":"3141","name":"Fermata 53 - FINALMARINA","lat":45.03273,"lng":7.66734},{"id":"3745","name":"Fermata 912 - LINGOTTO","lat":45.03111,"lng":7.66672},{"id":"1664","name":"Fermata 2509 - FILZI","lat":45.02708,"lng":7.66535},{"id":"3180","name":"Fermata 57 - SOMMARIVA","lat":45.02284,"lng":7.66352},{"id":"3581","name":"Fermata 793 - TROFARELLO","lat":45.0227,"lng":7.66041},{"id":"625","name":"Fermata 1558 - PASSO BUOLE","lat":45.02427,"lng":7.65626},{"id":"1766","name":"Fermata 2604 - STAZIONE LINGOTTO","lat":45.02628,"lng":7.65665},{"id":"1764","name":"Fermata 2602 - PIO VII","lat":45.0275,"lng":7.65476},{"id":"3584","name":"Fermata 796 - STADIO BASEBALL","lat":45.02516,"lng":7.65194},{"id":"3586","name":"Fermata 798 - SIDOLI","lat":45.02691,"lng":7.64668},{"id":"3589","name":"Fermata 800 - UNIONE SOVIETICA","lat":45.02843,"lng":7.64226},{"id":"422","name":"Fermata 1372 - PARK CAIO MARIO","lat":45.0275,"lng":7.6406},{"id":"1999","name":"Fermata 282 - TRAIANO","lat":45.0263,"lng":7.63915},{"id":"125","name":"Fermata 1103 - CAIO MARIO","lat":45.02355,"lng":7.63619},{"id":"106","name":"Fermata 1083 - CAIO MARIO CAP","lat":45.02427,"lng":7.63623}]}]},{"id":"ST1U","shortName":"STAR 1","longName":"via Bixio - corso Farini","type":"Otobüs","color":"#FF9900","url":"http://www.gtt.to.it/cms/percorari/urbano?view=percorsi&bacino=U&linea=ST1&Regol=OR","directions":[{"directionId":"0","headsign":"PALAGIUSTIZIA, VIA BIXIO","geometry":[[45.07175,7.70279],[45.07259,7.70204],[45.07248,7.70179],[45.0713,7.70283],[45.06893,7.69985],[45.07082,7.69694],[45.06885,7.69465],[45.06997,7.69152],[45.06673,7.68922],[45.06642,7.68852],[45.06586,7.68861],[45.06289,7.68652],[45.06519,7.67918],[45.06488,7.67895],[45.06635,7.67498],[45.06459,7.67377],[45.0658,7.67066],[45.06511,7.67057],[45.06329,7.66931],[45.06569,7.66251],[45.06818,7.66425],[45.06974,7.65982],[45.06794,7.65835],[45.06899,7.65556]],"stops":[{"id":"8854","name":"Fermata 3743 - MANIN CAP","lat":45.07177,"lng":7.70284},{"id":"3181","name":"Fermata 570 - REGINA MARGHERITA","lat":45.071,"lng":7.70241},{"id":"3174","name":"Fermata 564 - SANTA GIULIA","lat":45.06915,"lng":7.7001},{"id":"2869","name":"Fermata 4026 - GUASTALLA","lat":45.07054,"lng":7.69747},{"id":"2867","name":"Fermata 4024 - FERRARI","lat":45.06898,"lng":7.69471},{"id":"2868","name":"Fermata 4025 - MONTEBELLO","lat":45.06951,"lng":7.69294},{"id":"3556","name":"Fermata 769 - PO","lat":45.06872,"lng":7.69059},{"id":"3559","name":"Fermata 772 - GIOLITTI","lat":45.06557,"lng":7.6884},{"id":"3561","name":"Fermata 774 - CAVOUR","lat":45.06395,"lng":7.68713},{"id":"2925","name":"Fermata 4095 - BODONI","lat":45.06388,"lng":7.68378},{"id":"760","name":"Fermata 1682 - ARSENALE","lat":45.06556,"lng":7.67712},{"id":"2944","name":"Fermata 4111 - VITTORIO EMANUELE II","lat":45.06489,"lng":7.67394},{"id":"2619","name":"Fermata 340 - VELA - G.A.M.","lat":45.06448,"lng":7.67008},{"id":"3700","name":"Fermata 878 - GALILEO FERRARIS","lat":45.06355,"lng":7.66868},{"id":"2549","name":"Fermata 3333 - DUCA DEGLI ABRUZZI","lat":45.06451,"lng":7.66598},{"id":"2957","name":"Fermata 4134 - MAGENTA","lat":45.06769,"lng":7.66393},{"id":"3080","name":"Fermata 5053 - PALAGIUSTIZIA","lat":45.06913,"lng":7.65913},{"id":"8853","name":"Fermata 3742 - BIXIO CAP","lat":45.06904,"lng":7.65559}]},{"directionId":"1","headsign":"MANIN","geometry":[[45.06899,7.65556],[45.06914,7.6552],[45.07293,7.65582],[45.0701,7.6639],[45.06588,7.661],[45.06569,7.66251],[45.06329,7.66931],[45.06511,7.67057],[45.06523,7.67149],[45.06436,7.67389],[45.06617,7.67529],[45.06488,7.67895],[45.06882,7.68174],[45.06603,7.68915],[45.06673,7.68922],[45.07421,7.69447],[45.07386,7.69545],[45.07405,7.69704],[45.07513,7.6996],[45.0757,7.70421],[45.07227,7.70718],[45.06952,7.70816],[45.06898,7.70788],[45.06906,7.70722],[45.07,7.70443],[45.07175,7.70279]],"stops":[{"id":"8853","name":"Fermata 3742 - BIXIO CAP","lat":45.06904,"lng":7.65559},{"id":"2413","name":"Fermata 3198 - ADRIANO OVEST","lat":45.07036,"lng":7.65548},{"id":"2854","name":"Fermata 4001 - PALAGIUSTIZIA","lat":45.07078,"lng":7.6617},{"id":"2790","name":"Fermata 3564 - CAVALLI","lat":45.06981,"lng":7.66365},{"id":"2861","name":"Fermata 4016 - MAGENTA","lat":45.06774,"lng":7.66222},{"id":"2500","name":"Fermata 3285 - DUCA DEGLI ABRUZZI","lat":45.06507,"lng":7.66406},{"id":"3701","name":"Fermata 879 - GALILEO FERRARIS","lat":45.06373,"lng":7.66795},{"id":"2608","name":"Fermata 339 - VELA - G.A.M.","lat":45.06432,"lng":7.6701},{"id":"2943","name":"Fermata 4110 - VITTORIO EMANUELE II","lat":45.0649,"lng":7.67436},{"id":"1109","name":"Fermata 2010 - ARSENALE","lat":45.06567,"lng":7.67678},{"id":"1647","name":"Fermata 249 - ARCIVESCOVADO","lat":45.06687,"lng":7.68041},{"id":"2891","name":"Fermata 4058 - ROMA","lat":45.06811,"lng":7.68366},{"id":"2918","name":"Fermata 4084 - CARLO EMANUELE II","lat":45.06651,"lng":7.68824},{"id":"3558","name":"Fermata 770 - PO","lat":45.06764,"lng":7.68987},{"id":"2765","name":"Fermata 3540 - VERDI","lat":45.06878,"lng":7.69068},{"id":"3555","name":"Fermata 768 - AUDITORIUM","lat":45.07133,"lng":7.69247},{"id":"3424","name":"Fermata 640 - REGINA MARGHERITA","lat":45.07306,"lng":7.69368},{"id":"1202","name":"Fermata 2089 - PISA","lat":45.07382,"lng":7.69564},{"id":"1422","name":"Fermata 2281 - CAMPUS EINAUDI","lat":45.07494,"lng":7.6993},{"id":"1428","name":"Fermata 2287 - STABILIMENTO GTT TORTONA","lat":45.0743,"lng":7.70535},{"id":"1430","name":"Fermata 2289 - BELGIO","lat":45.07139,"lng":7.7075},{"id":"2934","name":"Fermata 4104 - OSPEDALE GRADENIGO","lat":45.06989,"lng":7.70496},{"id":"8854","name":"Fermata 3743 - MANIN CAP","lat":45.07177,"lng":7.70284}]}]},{"id":"ST2U","shortName":"STAR 2","longName":"corso Massimo d'Azeglio - corso Bolzano","type":"Otobüs","color":"#FF9900","url":"http://www.gtt.to.it/cms/percorari/urbano?view=percorsi&bacino=U&linea=ST2&Regol=OR","directions":[{"directionId":"0","headsign":"SAN SALVARIO, CORSO D'AZEGLIO","geometry":[[45.07166,7.66641],[45.0713,7.66643],[45.07366,7.66828],[45.07778,7.67098],[45.07786,7.67136],[45.07425,7.68188],[45.07077,7.67951],[45.07009,7.68109],[45.06924,7.68056],[45.06651,7.6883],[45.06598,7.68881],[45.06615,7.6893],[45.06673,7.68922],[45.06815,7.69024],[45.06281,7.69842],[45.05759,7.69323],[45.05949,7.68837],[45.0594,7.68776],[45.05111,7.68167]],"stops":[{"id":"2941","name":"Fermata 4109 - BOLZANO CAP","lat":45.07163,"lng":7.66651},{"id":"463","name":"Fermata 1411 - XVIII DICEMBRE","lat":45.07425,"lng":7.66863},{"id":"2940","name":"Fermata 4107 - STATUTO","lat":45.07693,"lng":7.67043},{"id":"2953","name":"Fermata 4120 - ALLIONI","lat":45.07755,"lng":7.67204},{"id":"2919","name":"Fermata 4089 - MUSEO SINDONE","lat":45.07592,"lng":7.67667},{"id":"2922","name":"Fermata 4091 - ORFANE","lat":45.07508,"lng":7.67916},{"id":"1571","name":"Fermata 242 - CORTE D'APPELLO","lat":45.07366,"lng":7.68145},{"id":"1595","name":"Fermata 244 - MONTE DI PIETÀ","lat":45.0715,"lng":7.6799},{"id":"3730","name":"Fermata 9019 - XX SETTEMBRE","lat":45.06908,"lng":7.68103},{"id":"2891","name":"Fermata 4058 - ROMA","lat":45.06811,"lng":7.68366},{"id":"2918","name":"Fermata 4084 - CARLO EMANUELE II","lat":45.06651,"lng":7.68824},{"id":"3558","name":"Fermata 770 - PO","lat":45.06764,"lng":7.68987},{"id":"3023","name":"Fermata 476 - SANT'OTTAVIO","lat":45.06672,"lng":7.69244},{"id":"3025","name":"Fermata 478 - VITTORIO VENETO","lat":45.06466,"lng":7.69561},{"id":"1116","name":"Fermata 2017 - GIOANETTI","lat":45.06234,"lng":7.69787},{"id":"1118","name":"Fermata 2019 - SOMMACAMPAGNA","lat":45.05935,"lng":7.6948},{"id":"2599","name":"Fermata 3381 - DELLA ROCCA","lat":45.05911,"lng":7.68957},{"id":"2623","name":"Fermata 3404 - PELLICO","lat":45.05682,"lng":7.68582},{"id":"2622","name":"Fermata 3402 - VALENTINO","lat":45.05436,"lng":7.684},{"id":"8858","name":"Fermata 3747 - D'AZEGLIO CAP","lat":45.05112,"lng":7.68164}]},{"directionId":"1","headsign":"BOLZANO","geometry":[[45.05111,7.68167],[45.05052,7.68126],[45.05147,7.67849],[45.06058,7.68491],[45.05759,7.69323],[45.06283,7.69845],[45.07027,7.68696],[45.0707,7.68294],[45.07324,7.68463],[45.07351,7.68149],[45.07485,7.67773],[45.07512,7.67791],[45.07536,7.67723],[45.07511,7.67704],[45.07619,7.67403],[45.07251,7.67141],[45.07389,7.66796],[45.07166,7.66641]],"stops":[{"id":"8858","name":"Fermata 3747 - D'AZEGLIO CAP","lat":45.05112,"lng":7.68164},{"id":"3572","name":"Fermata 785 - VALPERGA CALUSO","lat":45.05233,"lng":7.67929},{"id":"3570","name":"Fermata 783 - MARCONI","lat":45.05492,"lng":7.68096},{"id":"3568","name":"Fermata 781 - PELLICO","lat":45.05757,"lng":7.68286},{"id":"3565","name":"Fermata 779 - SAN PIO V","lat":45.05996,"lng":7.6845},{"id":"1041","name":"Fermata 1949 - D'AZEGLIO","lat":45.05954,"lng":7.68753},{"id":"3416","name":"Fermata 632 - DELLA ROCCA","lat":45.05867,"lng":7.69004},{"id":"1120","name":"Fermata 2020 - SOMMACAMPAGNA","lat":45.05923,"lng":7.69494},{"id":"1117","name":"Fermata 2018 - GIOANETTI","lat":45.06151,"lng":7.69719},{"id":"3026","name":"Fermata 479 - VITTORIO VENETO","lat":45.06492,"lng":7.69527},{"id":"3024","name":"Fermata 477 - SANT'OTTAVIO","lat":45.0665,"lng":7.69282},{"id":"3022","name":"Fermata 475 - ROSSINI","lat":45.06806,"lng":7.69042},{"id":"3019","name":"Fermata 472 - CASTELLO","lat":45.07064,"lng":7.68488},{"id":"1606","name":"Fermata 245 - GARIBALDI","lat":45.07195,"lng":7.68383},{"id":"2924","name":"Fermata 4093 - MILANO","lat":45.07357,"lng":7.68163},{"id":"2923","name":"Fermata 4092 - ORFANE","lat":45.07466,"lng":7.67855},{"id":"2921","name":"Fermata 4090 - PIAVE","lat":45.07571,"lng":7.67555},{"id":"2951","name":"Fermata 4119 - GARIBALDI OVEST","lat":45.07554,"lng":7.67335},{"id":"2950","name":"Fermata 4118 - BERTOLA","lat":45.07342,"lng":7.67196},{"id":"2955","name":"Fermata 4123 - XVIII DICEMBRE","lat":45.07353,"lng":7.66879},{"id":"2941","name":"Fermata 4109 - BOLZANO CAP","lat":45.07163,"lng":7.66651}]}]},{"id":"2U","shortName":"2","longName":"via Ponchielli - via Corradino","type":"Otobüs","color":"#FF9900","url":"http://www.gtt.to.it/cms/percorari/urbano?view=percorsi&bacino=U&linea=2&Regol=GE","directions":[{"directionId":"0","headsign":"PONCHIELLI","geometry":[[45.0183,7.6629],[45.01781,7.66532],[45.01697,7.66491],[45.01732,7.66325],[45.01834,7.66367],[45.02023,7.6553],[45.02591,7.6392],[45.02683,7.63751],[45.0305,7.64021],[45.03265,7.63399],[45.03902,7.63414],[45.03986,7.63465],[45.04079,7.63401],[45.06004,7.6351],[45.0618,7.63539],[45.06902,7.63856],[45.0754,7.64365],[45.07787,7.64503],[45.10523,7.6636],[45.10355,7.69469],[45.10239,7.69995],[45.10179,7.69985],[45.09737,7.69696],[45.09205,7.71004],[45.0904,7.7119],[45.08945,7.71091],[45.088,7.70777],[45.08583,7.70978],[45.08508,7.70826],[45.08622,7.70508]],"stops":[{"id":"211","name":"Fermata 1182 - MARONCELLI CAP","lat":45.0181,"lng":7.66282},{"id":"692","name":"Fermata 162 - BENGASI EST","lat":45.01848,"lng":7.66322},{"id":"670","name":"Fermata 160 - CANELLI","lat":45.01896,"lng":7.6607},{"id":"648","name":"Fermata 158 - SETTE COMUNI","lat":45.02033,"lng":7.65494},{"id":"627","name":"Fermata 156 - PIO VII","lat":45.02182,"lng":7.65079},{"id":"618","name":"Fermata 155 - BENEDETTO CROCE","lat":45.02317,"lng":7.64696},{"id":"595","name":"Fermata 153 - GUALA","lat":45.0242,"lng":7.64403},{"id":"573","name":"Fermata 151 - UNIONE SOVIETICA","lat":45.02587,"lng":7.63933},{"id":"529","name":"Fermata 147 - AGNELLI C.3","lat":45.02972,"lng":7.63968},{"id":"506","name":"Fermata 145 - D'ARBOREA","lat":45.03127,"lng":7.63818},{"id":"483","name":"Fermata 143 - TAZZOLI C.2","lat":45.03202,"lng":7.63593},{"id":"461","name":"Fermata 141 - TAZZOLI","lat":45.03317,"lng":7.63413},{"id":"438","name":"Fermata 139 - DANDOLO","lat":45.03622,"lng":7.63417},{"id":"419","name":"Fermata 137 - PITAGORA SUD","lat":45.03891,"lng":7.63427},{"id":"397","name":"Fermata 135 - PITAGORA NORD","lat":45.04137,"lng":7.63407},{"id":"466","name":"Fermata 1414 - BOSTON","lat":45.04323,"lng":7.63423},{"id":"377","name":"Fermata 133 - FILADELFIA","lat":45.04621,"lng":7.63436},{"id":"356","name":"Fermata 131 - SEBASTOPOLI","lat":45.04821,"lng":7.63455},{"id":"335","name":"Fermata 129 - MONFALCONE","lat":45.05238,"lng":7.6347},{"id":"313","name":"Fermata 127 - PARCO RUFFINI","lat":45.05708,"lng":7.63504},{"id":"284","name":"Fermata 125 - LANCIA","lat":45.06192,"lng":7.63549},{"id":"262","name":"Fermata 123 - MONGINEVRO","lat":45.06483,"lng":7.63675},{"id":"241","name":"Fermata 121 - PESCHIERA","lat":45.06839,"lng":7.63829},{"id":"219","name":"Fermata 119 - BARDONECCHIA","lat":45.07221,"lng":7.64107},{"id":"197","name":"Fermata 117 - RIVOLI SUD","lat":45.07489,"lng":7.64312},{"id":"2726","name":"Fermata 3502 - RIVOLI NORD","lat":45.07594,"lng":7.64389},{"id":"8027","name":"Fermata 3596 - MEDICI","lat":45.07971,"lng":7.64647},{"id":"121","name":"Fermata 110 - LESSONA","lat":45.08343,"lng":7.64899},{"id":"97","name":"Fermata 108 - APPIO CLAUDIO","lat":45.08563,"lng":7.65046},{"id":"73","name":"Fermata 106 - REGINA MARGHERITA","lat":45.08807,"lng":7.65206},{"id":"51","name":"Fermata 104 - PIANEZZA","lat":45.09184,"lng":7.65459},{"id":"7","name":"Fermata 100 - TOSCANA","lat":45.09583,"lng":7.65728},{"id":"3814","name":"Fermata 98 - FOLIGNO","lat":45.10013,"lng":7.66025},{"id":"2632","name":"Fermata 3414 - MADONNA DI CAMPAGNA","lat":45.10415,"lng":7.66299},{"id":"3772","name":"Fermata 94 - STAZIONE GROSSETO","lat":45.10503,"lng":7.66489},{"id":"714","name":"Fermata 164 - CASTELDELFINO","lat":45.10466,"lng":7.67363},{"id":"3724","name":"Fermata 90 - ROCCAVIONE","lat":45.10445,"lng":7.6773},{"id":"3702","name":"Fermata 88 - CHIESA DELLA SALUTE","lat":45.10416,"lng":7.68189},{"id":"3680","name":"Fermata 86 - ALA DI STURA","lat":45.10402,"lng":7.68556},{"id":"3616","name":"Fermata 82 - REBAUDENGO","lat":45.10314,"lng":7.69654},{"id":"3588","name":"Fermata 80 - DERNA SUD","lat":45.10118,"lng":7.69943},{"id":"329","name":"Fermata 1284 - PORPORA","lat":45.09836,"lng":7.69753},{"id":"3546","name":"Fermata 76 - MONTE ROSA","lat":45.09623,"lng":7.6997},{"id":"3535","name":"Fermata 75 - AMBROSIO","lat":45.09476,"lng":7.70337},{"id":"3518","name":"Fermata 73 - CHERUBINI","lat":45.09351,"lng":7.70641},{"id":"3496","name":"Fermata 71 - FUSINATO","lat":45.09131,"lng":7.71104},{"id":"3534","name":"Fermata 749 - CROCE ROSSA","lat":45.08909,"lng":7.71008},{"id":"3490","name":"Fermata 704 - BOLOGNA","lat":45.08759,"lng":7.70803},{"id":"1573","name":"Fermata 2423 - CIMAROSA EST","lat":45.08561,"lng":7.70933},{"id":"3475","name":"Fermata 69 - PONCHIELLI CAP","lat":45.08628,"lng":7.70511}]},{"directionId":"1","headsign":"MARONCELLI","geometry":[[45.08622,7.70508],[45.08663,7.70476],[45.08945,7.71091],[45.09074,7.71225],[45.09217,7.71052],[45.09678,7.69934],[45.0973,7.69967],[45.09895,7.69823],[45.1025,7.70058],[45.10355,7.69469],[45.10542,7.66295],[45.10347,7.66234],[45.10128,7.6609],[45.07965,7.64633],[45.07565,7.643],[45.0734,7.64178],[45.06902,7.63856],[45.06266,7.63573],[45.06071,7.63519],[45.04079,7.63401],[45.04026,7.63322],[45.03902,7.6337],[45.03546,7.63354],[45.03481,7.63405],[45.03312,7.634],[45.03256,7.63363],[45.03045,7.63975],[45.02676,7.63717],[45.026,7.63866],[45.01953,7.65671],[45.0183,7.6629]],"stops":[{"id":"3475","name":"Fermata 69 - PONCHIELLI CAP","lat":45.08628,"lng":7.70511},{"id":"3538","name":"Fermata 752 - CIMAROSA","lat":45.08818,"lng":7.70836},{"id":"3536","name":"Fermata 750 - CROCE ROSSA","lat":45.08907,"lng":7.71031},{"id":"3486","name":"Fermata 70 - BOLOGNA","lat":45.09169,"lng":7.71124},{"id":"3507","name":"Fermata 72 - CORELLI","lat":45.0939,"lng":7.70649},{"id":"3527","name":"Fermata 74 - OSPEDALE GIOVANNI BOSCO","lat":45.09592,"lng":7.70151},{"id":"3557","name":"Fermata 77 - MONTE ROSA","lat":45.09817,"lng":7.69893},{"id":"3577","name":"Fermata 79 - DERNA SUD","lat":45.10127,"lng":7.69977},{"id":"3598","name":"Fermata 81 - REBAUDENGO","lat":45.10331,"lng":7.69661},{"id":"3669","name":"Fermata 85 - ALA DI STURA","lat":45.10408,"lng":7.68667},{"id":"3691","name":"Fermata 87 - CHIESA DELLA SALUTE","lat":45.10437,"lng":7.68198},{"id":"3712","name":"Fermata 89 - ROCCAVIONE","lat":45.1047,"lng":7.67626},{"id":"3742","name":"Fermata 91 - CASTELDELFINO","lat":45.10489,"lng":7.67237},{"id":"3647","name":"Fermata 83 - STAZIONE GROSSETO","lat":45.10533,"lng":7.66679},{"id":"3783","name":"Fermata 95 - MADONNA DI CAMPAGNA","lat":45.10389,"lng":7.66229},{"id":"3803","name":"Fermata 97 - FOLIGNO","lat":45.10059,"lng":7.66028},{"id":"3825","name":"Fermata 99 - TOSCANA","lat":45.09749,"lng":7.65828},{"id":"18","name":"Fermata 101 - VALDELLATORRE","lat":45.09477,"lng":7.65646},{"id":"40","name":"Fermata 103 - PIANEZZA","lat":45.092,"lng":7.65458},{"id":"62","name":"Fermata 105 - REGINA MARGHERITA","lat":45.08819,"lng":7.65204},{"id":"83","name":"Fermata 107 - APPIO CLAUDIO","lat":45.08538,"lng":7.65008},{"id":"111","name":"Fermata 109 - LESSONA","lat":45.08274,"lng":7.64836},{"id":"8028","name":"Fermata 3597 - MEDICI","lat":45.07955,"lng":7.64621},{"id":"2725","name":"Fermata 3501 - RIVOLI NORD","lat":45.07599,"lng":7.64341},{"id":"186","name":"Fermata 116 - RIVOLI SUD","lat":45.07497,"lng":7.64268},{"id":"208","name":"Fermata 118 - BARDONECCHIA","lat":45.07207,"lng":7.64076},{"id":"230","name":"Fermata 120 - PESCHIERA","lat":45.06944,"lng":7.63879},{"id":"252","name":"Fermata 122 - MONGINEVRO","lat":45.06485,"lng":7.63661},{"id":"273","name":"Fermata 124 - LANCIA","lat":45.06136,"lng":7.63521},{"id":"302","name":"Fermata 126 - PARCO RUFFINI","lat":45.05689,"lng":7.63481},{"id":"324","name":"Fermata 128 - MONFALCONE","lat":45.05292,"lng":7.63458},{"id":"345","name":"Fermata 130 - SEBASTOPOLI","lat":45.05,"lng":7.63445},{"id":"367","name":"Fermata 132 - FILADELFIA","lat":45.0463,"lng":7.63412},{"id":"464","name":"Fermata 1412 - BOSTON","lat":45.04325,"lng":7.63399},{"id":"387","name":"Fermata 134 - PITAGORA NORD","lat":45.04104,"lng":7.63393},{"id":"408","name":"Fermata 136 - PITAGORA SUD","lat":45.03875,"lng":7.63349},{"id":"428","name":"Fermata 138 - DANDOLO","lat":45.03583,"lng":7.63344},{"id":"449","name":"Fermata 140 - TAZZOLI","lat":45.03333,"lng":7.6339},{"id":"472","name":"Fermata 142 - TAZZOLI C.2","lat":45.03191,"lng":7.63527},{"id":"495","name":"Fermata 144 - D'ARBOREA","lat":45.0313,"lng":7.63709},{"id":"518","name":"Fermata 146 - AGNELLI C.3","lat":45.02904,"lng":7.6387},{"id":"562","name":"Fermata 150 - UNIONE SOVIETICA","lat":45.02616,"lng":7.63856},{"id":"584","name":"Fermata 152 - GUALA","lat":45.02441,"lng":7.64336},{"id":"1730","name":"Fermata 2568 - BENEDETTO CROCE","lat":45.02334,"lng":7.64636},{"id":"606","name":"Fermata 154 - PIO VII","lat":45.02201,"lng":7.65014},{"id":"638","name":"Fermata 157 - SETTE COMUNI","lat":45.02054,"lng":7.65431},{"id":"659","name":"Fermata 159 - CANELLI","lat":45.01884,"lng":7.6598},{"id":"681","name":"Fermata 161 - NIZZA","lat":45.01826,"lng":7.66256},{"id":"211","name":"Fermata 1182 - MARONCELLI CAP","lat":45.0181,"lng":7.66282}]}]},{"id":"5U","shortName":"5","longName":"piazza Dalla Chiesa (Orbassano) - piazza Arbarello","type":"Otobüs","color":"#FF9900","url":"http://www.gtt.to.it/cms/percorari/urbano?view=percorsi&bacino=U&linea=5&Regol=GE","directions":[{"directionId":"0","headsign":"DALLA CHIESA","geometry":[[45.07294,7.67575],[45.06613,7.67129],[45.06568,7.67054],[45.06511,7.67057],[45.05192,7.66147],[45.05318,7.65576],[45.05185,7.65511],[45.05179,7.65418],[45.04636,7.646],[45.04351,7.64096],[45.03187,7.61647],[45.03146,7.61269],[45.03289,7.6098],[45.03331,7.60751],[45.0342,7.60529],[45.03188,7.60347],[45.03106,7.60237],[45.02981,7.60335],[45.02828,7.60149],[45.02763,7.59848],[45.02596,7.59368],[45.0244,7.59081],[45.02423,7.58987],[45.02273,7.58747],[45.02174,7.58262],[45.01962,7.58064],[45.01078,7.5555],[45.00827,7.54646],[45.01145,7.53513],[45.00957,7.53282],[45.00959,7.53115],[45.0074,7.52966],[45.00889,7.52363],[45.00765,7.52351],[45.00668,7.52381],[45.00383,7.53118],[45.00191,7.52455],[44.99948,7.53166],[44.9991,7.53379],[45.00019,7.53411],[45.00352,7.53628],[45.00508,7.53665],[45.00584,7.53568],[45.00703,7.53121],[45.00884,7.5327],[45.00916,7.53249],[45.01088,7.53411],[45.01135,7.53497],[45.01052,7.53917],[45.00969,7.5408],[45.00835,7.54186],[45.00762,7.54425],[45.00786,7.54503]],"stops":[{"id":"2231","name":"Fermata 303 - SICCARDI CAP","lat":45.07296,"lng":7.67568},{"id":"2242","name":"Fermata 304 - CERNAIA","lat":45.07082,"lng":7.67415},{"id":"2658","name":"Fermata 344 - REVEL","lat":45.06859,"lng":7.67265},{"id":"2636","name":"Fermata 342 - VITTORIO EMANUELE II","lat":45.06627,"lng":7.67128},{"id":"2619","name":"Fermata 340 - VELA - G.A.M.","lat":45.06448,"lng":7.67008},{"id":"2598","name":"Fermata 338 - STATI UNITI","lat":45.06284,"lng":7.66888},{"id":"2577","name":"Fermata 336 - PASTRENGO","lat":45.06121,"lng":7.66779},{"id":"2556","name":"Fermata 334 - EINAUDI","lat":45.0588,"lng":7.66605},{"id":"2538","name":"Fermata 332 - COLOMBO","lat":45.05606,"lng":7.66414},{"id":"2516","name":"Fermata 330 - CABOTO","lat":45.05407,"lng":7.66276},{"id":"2494","name":"Fermata 328 - CASSINI","lat":45.05215,"lng":7.66058},{"id":"2475","name":"Fermata 326 - ORBASSANO","lat":45.05308,"lng":7.6567},{"id":"2458","name":"Fermata 324 - GESSI","lat":45.05095,"lng":7.65269},{"id":"2436","name":"Fermata 322 - CAPRERA","lat":45.04911,"lng":7.64995},{"id":"2416","name":"Fermata 320 - MOMBARCARO","lat":45.04732,"lng":7.64726},{"id":"2395","name":"Fermata 318 - SANTA RITA","lat":45.04602,"lng":7.64529},{"id":"2375","name":"Fermata 316 - FILADELFIA","lat":45.04364,"lng":7.64098},{"id":"2356","name":"Fermata 314 - BOSTON","lat":45.04241,"lng":7.63861},{"id":"2335","name":"Fermata 312 - PITAGORA","lat":45.04062,"lng":7.63485},{"id":"2309","name":"Fermata 310 - OMERO","lat":45.03835,"lng":7.63014},{"id":"1537","name":"Fermata 2389 - OMERO OVEST","lat":45.03719,"lng":7.62782},{"id":"2286","name":"Fermata 308 - CATTANEO","lat":45.03618,"lng":7.62581},{"id":"2264","name":"Fermata 306 - CATTANEO SUD","lat":45.03505,"lng":7.62333},{"id":"2220","name":"Fermata 302 - ORBASSANO C.11","lat":45.03225,"lng":7.61708},{"id":"2199","name":"Fermata 300 - SETTEMBRINI","lat":45.03158,"lng":7.61453},{"id":"2689","name":"Fermata 347 - MOTORIZZAZIONE","lat":45.0341,"lng":7.60566},{"id":"1364","name":"Fermata 2234 - CIMITERO PARCO","lat":45.03217,"lng":7.60369},{"id":"2164","name":"Fermata 297 - FERRARA","lat":45.02786,"lng":7.5997},{"id":"2143","name":"Fermata 295 - FORNACI","lat":45.02734,"lng":7.5976},{"id":"2121","name":"Fermata 293 - VIII MARZO","lat":45.02496,"lng":7.5918},{"id":"2099","name":"Fermata 291 - RISORGIMENTO","lat":45.02326,"lng":7.58843},{"id":"2076","name":"Fermata 289 - DOLCI","lat":45.02252,"lng":7.58616},{"id":"2043","name":"Fermata 286 - CAVOUR","lat":45.02167,"lng":7.58234},{"id":"2113","name":"Fermata 2922 - DE NICOLA","lat":45.01929,"lng":7.57937},{"id":"2111","name":"Fermata 2920 - FERMI","lat":45.01731,"lng":7.57355},{"id":"2108","name":"Fermata 2918 - CENTRO RICERCHE FIAT","lat":45.01501,"lng":7.5671},{"id":"2106","name":"Fermata 2916 - CIRCONVALLAZIONE","lat":45.01234,"lng":7.55951},{"id":"2104","name":"Fermata 2914 - PASCOLI","lat":45.00979,"lng":7.55155},{"id":"2102","name":"Fermata 2912 - GOZZANO","lat":45.00892,"lng":7.54797},{"id":"1682","name":"Fermata 2525 - GANDHI","lat":45.0087,"lng":7.54548},{"id":"2092","name":"Fermata 2903 - GIARDINI SARTORE","lat":45.00954,"lng":7.54175},{"id":"2093","name":"Fermata 2904 - CAVOUR","lat":45.01078,"lng":7.53858},{"id":"1655","name":"Fermata 2500 - COTTOLENGO","lat":45.01089,"lng":7.53402},{"id":"2094","name":"Fermata 2905 - MOLINI","lat":45.00964,"lng":7.53196},{"id":"2095","name":"Fermata 2906 - MONTE GRAPPA","lat":45.00773,"lng":7.52838},{"id":"2096","name":"Fermata 2907 - LAMARMORA","lat":45.00857,"lng":7.52496},{"id":"2097","name":"Fermata 2908 - MONTI","lat":45.00537,"lng":7.52719},{"id":"2098","name":"Fermata 2909 - GRAMSCI","lat":45.00345,"lng":7.52958},{"id":"2100","name":"Fermata 2910 - PIOSSASCO","lat":45.00172,"lng":7.5249},{"id":"2114","name":"Fermata 2923 - ROSSELLI","lat":45.00051,"lng":7.52849},{"id":"2127","name":"Fermata 2935 - VOLVERA","lat":44.99908,"lng":7.53348},{"id":"2115","name":"Fermata 2924 - AMENDOLA","lat":45.00172,"lng":7.5353},{"id":"2116","name":"Fermata 2925 - GIOLITTI","lat":45.00557,"lng":7.53608},{"id":"2407","name":"Fermata 3192 - PIAVE","lat":45.00691,"lng":7.532},{"id":"2408","name":"Fermata 3193 - NEGHELLI","lat":45.00842,"lng":7.53235},{"id":"2409","name":"Fermata 3194 - COTTOLENGO SUD","lat":45.01071,"lng":7.53407},{"id":"2410","name":"Fermata 3195 - CAVOUR SUD","lat":45.0106,"lng":7.53827},{"id":"2117","name":"Fermata 2926 - DE GASPERI SUD","lat":45.00851,"lng":7.54161},{"id":"2118","name":"Fermata 2927 - DALLA CHIESA CAP","lat":45.0078,"lng":7.54506}]},{"directionId":"1","headsign":"SICCARDI","geometry":[[45.00786,7.54503],[45.01056,7.55424],[45.01078,7.5555],[45.0105,7.55619],[45.01113,7.55681],[45.01206,7.55894],[45.01668,7.5722],[45.01661,7.57273],[45.01716,7.57354],[45.01974,7.58093],[45.02174,7.58262],[45.02267,7.58776],[45.02498,7.59199],[45.02712,7.59708],[45.03116,7.6116],[45.03175,7.61185],[45.0327,7.61026],[45.0342,7.60529],[45.03239,7.60394],[45.03094,7.60231],[45.02964,7.605],[45.03183,7.61675],[45.03513,7.62432],[45.04351,7.64096],[45.04658,7.64669],[45.05155,7.65386],[45.0514,7.65523],[45.05296,7.65629],[45.05178,7.66137],[45.06485,7.67038],[45.06545,7.67126],[45.06613,7.67129],[45.07333,7.67645],[45.0737,7.67636],[45.07294,7.67575]],"stops":[{"id":"2118","name":"Fermata 2927 - DALLA CHIESA CAP","lat":45.0078,"lng":7.54506},{"id":"2101","name":"Fermata 2911 - GOZZANO","lat":45.00926,"lng":7.55019},{"id":"2103","name":"Fermata 2913 - PASCOLI","lat":45.01017,"lng":7.55313},{"id":"2107","name":"Fermata 2917 - CENTRO RICERCHE FIAT","lat":45.01454,"lng":7.56617},{"id":"2109","name":"Fermata 2919 - FERMI","lat":45.0174,"lng":7.57465},{"id":"2112","name":"Fermata 2921 - DE NICOLA","lat":45.01936,"lng":7.58011},{"id":"2054","name":"Fermata 287 - CAVOUR","lat":45.02177,"lng":7.58301},{"id":"2065","name":"Fermata 288 - DOLCI","lat":45.02246,"lng":7.58657},{"id":"2088","name":"Fermata 290 - RISORGIMENTO","lat":45.02331,"lng":7.58879},{"id":"2110","name":"Fermata 292 - VIII MARZO","lat":45.02491,"lng":7.59201},{"id":"2132","name":"Fermata 294 - FORNACI","lat":45.02739,"lng":7.59814},{"id":"2154","name":"Fermata 296 - FERRARA","lat":45.02826,"lng":7.60165},{"id":"2175","name":"Fermata 298 - SVINCOLO MIRAFIORI","lat":45.02992,"lng":7.60787},{"id":"2689","name":"Fermata 347 - MOTORIZZAZIONE","lat":45.0341,"lng":7.60566},{"id":"1402","name":"Fermata 2262 - CIMITERO PARCO","lat":45.03211,"lng":7.60363},{"id":"2186","name":"Fermata 299 - SETTEMBRINI","lat":45.03106,"lng":7.61206},{"id":"2210","name":"Fermata 301 - ORBASSANO C.11","lat":45.03223,"lng":7.61774},{"id":"2253","name":"Fermata 305 - CATTANEO SUD","lat":45.03496,"lng":7.62395},{"id":"2275","name":"Fermata 307 - CATTANEO","lat":45.03614,"lng":7.62627},{"id":"1539","name":"Fermata 2390 - NALLINO","lat":45.0371,"lng":7.62819},{"id":"2297","name":"Fermata 309 - OMERO","lat":45.03821,"lng":7.63044},{"id":"2324","name":"Fermata 311 - PITAGORA","lat":45.04063,"lng":7.63523},{"id":"2345","name":"Fermata 313 - BOSTON","lat":45.04194,"lng":7.63799},{"id":"2366","name":"Fermata 315 - FILADELFIA","lat":45.04359,"lng":7.64127},{"id":"2384","name":"Fermata 317 - SANTA RITA","lat":45.04595,"lng":7.64538},{"id":"2404","name":"Fermata 319 - MOMBARCARO","lat":45.04724,"lng":7.64742},{"id":"2426","name":"Fermata 321 - CAPRERA","lat":45.04958,"lng":7.65102},{"id":"2447","name":"Fermata 323 - GESSI","lat":45.05107,"lng":7.65322},{"id":"2465","name":"Fermata 325 - ORBASSANO","lat":45.05281,"lng":7.65682},{"id":"2483","name":"Fermata 327 - CASSINI","lat":45.05217,"lng":7.65934},{"id":"2505","name":"Fermata 329 - CABOTO","lat":45.05394,"lng":7.66298},{"id":"2527","name":"Fermata 331 - COLOMBO","lat":45.05624,"lng":7.66459},{"id":"2545","name":"Fermata 333 - EINAUDI","lat":45.05883,"lng":7.66633},{"id":"2566","name":"Fermata 335 - PASTRENGO","lat":45.06106,"lng":7.66782},{"id":"2588","name":"Fermata 337 - STATI UNITI","lat":45.06294,"lng":7.6692},{"id":"2608","name":"Fermata 339 - VELA - G.A.M.","lat":45.06432,"lng":7.6701},{"id":"2647","name":"Fermata 343 - REVEL","lat":45.06839,"lng":7.67318},{"id":"2668","name":"Fermata 345 - CERNAIA","lat":45.07069,"lng":7.6747},{"id":"2231","name":"Fermata 303 - SICCARDI CAP","lat":45.07296,"lng":7.67568}]}]},{"id":"5BU","shortName":"5 /","longName":"lunedì-venerdì, via Bertani (cimitero Parco) - piazza Arbarello","type":"Otobüs","color":"#FF9900","url":"http://www.gtt.to.it/cms/percorari/urbano?view=percorsi&bacino=U&linea=5B&Regol=OR","directions":[{"directionId":"0","headsign":"CIMITERO PARCO, VIA BERTANI (UMC)","geometry":[[45.07294,7.67575],[45.06613,7.67129],[45.06568,7.67054],[45.06511,7.67057],[45.05192,7.66147],[45.05318,7.65576],[45.05185,7.65511],[45.05179,7.65418],[45.04636,7.646],[45.04351,7.64096],[45.03192,7.61662],[45.03146,7.61269],[45.03289,7.6098],[45.03331,7.60751],[45.0342,7.60532],[45.03155,7.60293]],"stops":[{"id":"2231","name":"Fermata 303 - SICCARDI CAP","lat":45.07296,"lng":7.67568},{"id":"2242","name":"Fermata 304 - CERNAIA","lat":45.07082,"lng":7.67415},{"id":"2658","name":"Fermata 344 - REVEL","lat":45.06859,"lng":7.67265},{"id":"2636","name":"Fermata 342 - VITTORIO EMANUELE II","lat":45.06627,"lng":7.67128},{"id":"2619","name":"Fermata 340 - VELA - G.A.M.","lat":45.06448,"lng":7.67008},{"id":"2598","name":"Fermata 338 - STATI UNITI","lat":45.06284,"lng":7.66888},{"id":"2577","name":"Fermata 336 - PASTRENGO","lat":45.06121,"lng":7.66779},{"id":"2556","name":"Fermata 334 - EINAUDI","lat":45.0588,"lng":7.66605},{"id":"2538","name":"Fermata 332 - COLOMBO","lat":45.05606,"lng":7.66414},{"id":"2516","name":"Fermata 330 - CABOTO","lat":45.05407,"lng":7.66276},{"id":"2494","name":"Fermata 328 - CASSINI","lat":45.05215,"lng":7.66058},{"id":"2475","name":"Fermata 326 - ORBASSANO","lat":45.05308,"lng":7.6567},{"id":"2458","name":"Fermata 324 - GESSI","lat":45.05095,"lng":7.65269},{"id":"2436","name":"Fermata 322 - CAPRERA","lat":45.04911,"lng":7.64995},{"id":"2416","name":"Fermata 320 - MOMBARCARO","lat":45.04732,"lng":7.64726},{"id":"2395","name":"Fermata 318 - SANTA RITA","lat":45.04602,"lng":7.64529},{"id":"2375","name":"Fermata 316 - FILADELFIA","lat":45.04364,"lng":7.64098},{"id":"2356","name":"Fermata 314 - BOSTON","lat":45.04241,"lng":7.63861},{"id":"2335","name":"Fermata 312 - PITAGORA","lat":45.04062,"lng":7.63485},{"id":"2309","name":"Fermata 310 - OMERO","lat":45.03835,"lng":7.63014},{"id":"1537","name":"Fermata 2389 - OMERO OVEST","lat":45.03719,"lng":7.62782},{"id":"2286","name":"Fermata 308 - CATTANEO","lat":45.03618,"lng":7.62581},{"id":"2264","name":"Fermata 306 - CATTANEO SUD","lat":45.03505,"lng":7.62333},{"id":"2220","name":"Fermata 302 - ORBASSANO C.11","lat":45.03225,"lng":7.61708},{"id":"2199","name":"Fermata 300 - SETTEMBRINI","lat":45.03158,"lng":7.61453},{"id":"2689","name":"Fermata 347 - MOTORIZZAZIONE","lat":45.0341,"lng":7.60566},{"id":"2119","name":"Fermata 2928 - BERTANI CAP","lat":45.0316,"lng":7.60288}]},{"directionId":"1","headsign":"CITTADELLA, PIAZZA ARBARELLO","geometry":[[45.03155,7.60293],[45.03546,7.60642],[45.03183,7.61675],[45.03513,7.62432],[45.04351,7.64096],[45.04658,7.64669],[45.05155,7.65386],[45.0514,7.65523],[45.05296,7.65629],[45.05178,7.66137],[45.06485,7.67038],[45.06545,7.67126],[45.06613,7.67129],[45.07333,7.67645],[45.0737,7.67636],[45.07294,7.67575]],"stops":[{"id":"2119","name":"Fermata 2928 - BERTANI CAP","lat":45.0316,"lng":7.60288},{"id":"2700","name":"Fermata 348 - MOTORIZZAZIONE","lat":45.03385,"lng":7.60503},{"id":"1368","name":"Fermata 2238 - ORBASSANO","lat":45.03277,"lng":7.61343},{"id":"2210","name":"Fermata 301 - ORBASSANO C.11","lat":45.03223,"lng":7.61774},{"id":"2253","name":"Fermata 305 - CATTANEO SUD","lat":45.03496,"lng":7.62395},{"id":"2275","name":"Fermata 307 - CATTANEO","lat":45.03614,"lng":7.62627},{"id":"1539","name":"Fermata 2390 - NALLINO","lat":45.0371,"lng":7.62819},{"id":"2297","name":"Fermata 309 - OMERO","lat":45.03821,"lng":7.63044},{"id":"2324","name":"Fermata 311 - PITAGORA","lat":45.04063,"lng":7.63523},{"id":"2345","name":"Fermata 313 - BOSTON","lat":45.04194,"lng":7.63799},{"id":"2366","name":"Fermata 315 - FILADELFIA","lat":45.04359,"lng":7.64127},{"id":"2384","name":"Fermata 317 - SANTA RITA","lat":45.04595,"lng":7.64538},{"id":"2404","name":"Fermata 319 - MOMBARCARO","lat":45.04724,"lng":7.64742},{"id":"2426","name":"Fermata 321 - CAPRERA","lat":45.04958,"lng":7.65102},{"id":"2447","name":"Fermata 323 - GESSI","lat":45.05107,"lng":7.65322},{"id":"2465","name":"Fermata 325 - ORBASSANO","lat":45.05281,"lng":7.65682},{"id":"2483","name":"Fermata 327 - CASSINI","lat":45.05217,"lng":7.65934},{"id":"2505","name":"Fermata 329 - CABOTO","lat":45.05394,"lng":7.66298},{"id":"2527","name":"Fermata 331 - COLOMBO","lat":45.05624,"lng":7.66459},{"id":"2545","name":"Fermata 333 - EINAUDI","lat":45.05883,"lng":7.66633},{"id":"2566","name":"Fermata 335 - PASTRENGO","lat":45.06106,"lng":7.66782},{"id":"2588","name":"Fermata 337 - STATI UNITI","lat":45.06294,"lng":7.6692},{"id":"2608","name":"Fermata 339 - VELA - G.A.M.","lat":45.06432,"lng":7.6701},{"id":"2647","name":"Fermata 343 - REVEL","lat":45.06839,"lng":7.67318},{"id":"2668","name":"Fermata 345 - CERNAIA","lat":45.07069,"lng":7.6747},{"id":"2231","name":"Fermata 303 - SICCARDI CAP","lat":45.07296,"lng":7.67568}]}]},{"id":"6U","shortName":"6","longName":"piazza Hermada - piazza Carlo Felice","type":"Otobüs","color":"#FF9900","url":"http://www.gtt.to.it/cms/percorari/urbano?view=percorsi&bacino=U&linea=6&Regol=GE","directions":[{"directionId":"0","headsign":"VAL SAN MARTINO, PIAZZA HERMADA","geometry":[[45.0637,7.67907],[45.0628,7.67845],[45.06058,7.68491],[45.06586,7.68861],[45.06615,7.6893],[45.06673,7.68922],[45.07365,7.6941],[45.07336,7.69697],[45.07461,7.70096],[45.07504,7.70474],[45.07209,7.70728],[45.06952,7.70816],[45.0688,7.70784],[45.06741,7.70862],[45.06455,7.71121]],"stops":[{"id":"2809","name":"Fermata 3582 - CARLO FELICE","lat":45.06373,"lng":7.679},{"id":"2843","name":"Fermata 39 - PORTA NUOVA","lat":45.06255,"lng":7.6791},{"id":"1037","name":"Fermata 1945 - CARLO ALBERTO","lat":45.06163,"lng":7.68181},{"id":"3548","name":"Fermata 761 - VITTORIO EMANUELE II","lat":45.06109,"lng":7.6853},{"id":"3562","name":"Fermata 775 - CAVOUR","lat":45.06346,"lng":7.68697},{"id":"3560","name":"Fermata 773 - GIOLITTI","lat":45.06531,"lng":7.68827},{"id":"3558","name":"Fermata 770 - PO","lat":45.06764,"lng":7.68987},{"id":"2765","name":"Fermata 3540 - VERDI","lat":45.06878,"lng":7.69068},{"id":"3555","name":"Fermata 768 - AUDITORIUM","lat":45.07133,"lng":7.69247},{"id":"3424","name":"Fermata 640 - REGINA MARGHERITA","lat":45.07306,"lng":7.69368},{"id":"2462","name":"Fermata 3244 - CAMPUS EINAUDI","lat":45.07451,"lng":7.70112},{"id":"1428","name":"Fermata 2287 - STABILIMENTO GTT TORTONA","lat":45.0743,"lng":7.70535},{"id":"1430","name":"Fermata 2289 - BELGIO","lat":45.07139,"lng":7.7075},{"id":"1114","name":"Fermata 2015 - BORROMINI","lat":45.06653,"lng":7.70939},{"id":"2450","name":"Fermata 3232 - HERMADA CAP","lat":45.06452,"lng":7.71114}]},{"directionId":"1","headsign":"PORTA NUOVA, PIAZZA CARLO FELICE","geometry":[[45.06455,7.71121],[45.06382,7.71189],[45.06395,7.71238],[45.06749,7.70889],[45.06896,7.708],[45.06952,7.70816],[45.07227,7.70718],[45.0757,7.70421],[45.07513,7.6996],[45.074,7.69674],[45.07421,7.69447],[45.06673,7.68922],[45.06642,7.68852],[45.06586,7.68861],[45.06058,7.68491],[45.06266,7.67957],[45.06372,7.68025],[45.06414,7.68011],[45.0642,7.67962],[45.0637,7.67907]],"stops":[{"id":"2450","name":"Fermata 3232 - HERMADA CAP","lat":45.06452,"lng":7.71114},{"id":"500","name":"Fermata 1444 - GOZZANO","lat":45.06487,"lng":7.71131},{"id":"1115","name":"Fermata 2016 - BORROMINI","lat":45.06647,"lng":7.70986},{"id":"1429","name":"Fermata 2288 - BELGIO","lat":45.07168,"lng":7.70754},{"id":"1427","name":"Fermata 2286 - STABILIMENTO GTT TORTONA","lat":45.07477,"lng":7.70511},{"id":"1434","name":"Fermata 2293 - CAMPUS EINAUDI","lat":45.07504,"lng":7.69917},{"id":"1192","name":"Fermata 2081 - PISA","lat":45.07394,"lng":7.69557},{"id":"1784","name":"Fermata 2620 - SANTA GIULIA","lat":45.07218,"lng":7.69303},{"id":"3212","name":"Fermata 600 - AUDITORIUM","lat":45.07086,"lng":7.69209},{"id":"3556","name":"Fermata 769 - PO","lat":45.06872,"lng":7.69059},{"id":"3559","name":"Fermata 772 - GIOLITTI","lat":45.06557,"lng":7.6884},{"id":"3561","name":"Fermata 774 - CAVOUR","lat":45.06395,"lng":7.68713},{"id":"3564","name":"Fermata 778 - VITTORIO EMANUELE II","lat":45.06108,"lng":7.68522},{"id":"1038","name":"Fermata 1946 - CARLO ALBERTO","lat":45.06172,"lng":7.68187},{"id":"2809","name":"Fermata 3582 - CARLO FELICE","lat":45.06373,"lng":7.679}]}]},{"id":"11U","shortName":"11","longName":"via Leopardi (Venaria Reale) - corso Stati Uniti","type":"Otobüs","color":"#FF9900","url":"http://www.gtt.to.it/cms/percorari/urbano?view=percorsi&bacino=U&linea=11&Regol=GE","directions":[{"directionId":"0","headsign":"BUOZZI","geometry":[[45.06253,7.67142],[45.06275,7.67081],[45.06298,7.67097],[45.06251,7.67226],[45.06229,7.67212],[45.06096,7.6762],[45.07571,7.68621],[45.07672,7.6836],[45.08296,7.6878],[45.08429,7.68368],[45.08974,7.67844],[45.09012,7.67868],[45.09046,7.67838],[45.08969,7.67435],[45.09056,7.67056],[45.09134,7.67048],[45.0968,7.67176],[45.09895,7.66931],[45.1057,7.66318],[45.10666,7.66327],[45.10685,7.66264],[45.11184,7.66005],[45.11188,7.65745],[45.11495,7.65466],[45.12159,7.64708],[45.12273,7.64517],[45.12334,7.64307],[45.12374,7.64318],[45.1258,7.64837],[45.12407,7.64415]],"stops":[{"id":"2675","name":"Fermata 3456 - STATI UNITI CAP","lat":45.06261,"lng":7.67148},{"id":"1698","name":"Fermata 254 - SAN SECONDO","lat":45.06139,"lng":7.67457},{"id":"1687","name":"Fermata 253 - PORTA NUOVA","lat":45.06263,"lng":7.67746},{"id":"1647","name":"Fermata 249 - ARCIVESCOVADO","lat":45.06687,"lng":7.68041},{"id":"717","name":"Fermata 1642 - BERTOLA","lat":45.06945,"lng":7.68207},{"id":"1606","name":"Fermata 245 - GARIBALDI","lat":45.07195,"lng":7.68383},{"id":"1580","name":"Fermata 243 - DUOMO - MUSEI REALI","lat":45.07426,"lng":7.68529},{"id":"3658","name":"Fermata 84 - PORTA PALAZZO NORD","lat":45.07743,"lng":7.68411},{"id":"1560","name":"Fermata 241 - BORGO DORA","lat":45.08013,"lng":7.68585},{"id":"249","name":"Fermata 1217 - EMILIA","lat":45.08233,"lng":7.68756},{"id":"2399","name":"Fermata 3185 - VERCELLI","lat":45.08404,"lng":7.68461},{"id":"2819","name":"Fermata 366 - CUNEO","lat":45.088,"lng":7.68024},{"id":"2817","name":"Fermata 364 - BALDISSERA","lat":45.08962,"lng":7.67858},{"id":"1957","name":"Fermata 2782 - GIACHINO","lat":45.08991,"lng":7.67575},{"id":"1962","name":"Fermata 2787 - LIVORNO","lat":45.09036,"lng":7.67143},{"id":"844","name":"Fermata 1763 - MORTARA","lat":45.0913,"lng":7.67052},{"id":"842","name":"Fermata 1761 - BRIN","lat":45.09403,"lng":7.67111},{"id":"839","name":"Fermata 1759 - VEROLENGO","lat":45.09566,"lng":7.67159},{"id":"1723","name":"Fermata 2561 - LARGO GIACHINO NORD","lat":45.09726,"lng":7.67131},{"id":"2965","name":"Fermata 420 - BREGLIO","lat":45.09929,"lng":7.66908},{"id":"1808","name":"Fermata 2643 - V CIRCOSCRIZIONE","lat":45.10079,"lng":7.66778},{"id":"2962","name":"Fermata 418 - MADONNA DI CAMPAGNA","lat":45.10196,"lng":7.66677},{"id":"2959","name":"Fermata 415 - LARGO GROSSETO SUD","lat":45.10479,"lng":7.6642},{"id":"2958","name":"Fermata 414 - LARGO GROSSETO NORD","lat":45.10728,"lng":7.66249},{"id":"2942","name":"Fermata 411 - VERONESE","lat":45.11078,"lng":7.66066},{"id":"1561","name":"Fermata 2410 - STAMPALIA","lat":45.11199,"lng":7.65832},{"id":"2903","name":"Fermata 407 - DRUENTO","lat":45.11369,"lng":7.6559},{"id":"2885","name":"Fermata 405 - STABILIMENTO GTT VENARIA","lat":45.11591,"lng":7.65354},{"id":"1448","name":"Fermata 2306 - STAZIONE RIGOLA","lat":45.11852,"lng":7.65043},{"id":"1446","name":"Fermata 2304 - SANDRE","lat":45.11983,"lng":7.64883},{"id":"1523","name":"Fermata 2376 - TANGENZIALE","lat":45.1223,"lng":7.64606},{"id":"1442","name":"Fermata 2300 - BUOZZI","lat":45.12415,"lng":7.64456},{"id":"1467","name":"Fermata 2324 - DI VITTORIO","lat":45.12532,"lng":7.64767},{"id":"1466","name":"Fermata 2323 - DI VITTORIO","lat":45.1253,"lng":7.64735},{"id":"1443","name":"Fermata 2301 - BUOZZI","lat":45.12416,"lng":7.64409}]},{"directionId":"1","headsign":"STATI UNITI","geometry":[[45.12407,7.64415],[45.12331,7.64261],[45.12306,7.64428],[45.1219,7.64666],[45.11495,7.65466],[45.10609,7.66288],[45.10515,7.66271],[45.105,7.66391],[45.09895,7.66931],[45.0968,7.67176],[45.09541,7.67149],[45.09516,7.67106],[45.09501,7.67128],[45.09056,7.67016],[45.0897,7.67413],[45.08989,7.67707],[45.08955,7.67789],[45.09,7.67914],[45.08867,7.68816],[45.08899,7.68824],[45.0878,7.69084],[45.07079,7.67952],[45.06991,7.68111],[45.06134,7.67479],[45.06253,7.67142]],"stops":[{"id":"1443","name":"Fermata 2301 - BUOZZI","lat":45.12416,"lng":7.64409},{"id":"1524","name":"Fermata 2377 - TANGENZIALE","lat":45.12192,"lng":7.64655},{"id":"1458","name":"Fermata 2316 - SANDRE","lat":45.11985,"lng":7.64867},{"id":"1468","name":"Fermata 2325 - STAZIONE RIGOLA","lat":45.11897,"lng":7.64979},{"id":"2878","name":"Fermata 404 - STABILIMENTO GTT VENARIA","lat":45.1157,"lng":7.65366},{"id":"1164","name":"Fermata 2061 - STAMPALIA","lat":45.11223,"lng":7.6571},{"id":"2913","name":"Fermata 408 - CALTANISSETTA","lat":45.11004,"lng":7.65917},{"id":"2931","name":"Fermata 410 - BROSSO","lat":45.10845,"lng":7.66055},{"id":"2956","name":"Fermata 413 - LARGO GROSSETO NORD","lat":45.10574,"lng":7.66277},{"id":"2960","name":"Fermata 416 - LARGO GROSSETO SUD","lat":45.10478,"lng":7.66403},{"id":"2961","name":"Fermata 417 - MADONNA DI CAMPAGNA","lat":45.10208,"lng":7.66653},{"id":"1809","name":"Fermata 2644 - V CIRCOSCRIZIONE","lat":45.10065,"lng":7.66774},{"id":"2963","name":"Fermata 419 - BREGLIO","lat":45.09904,"lng":7.66918},{"id":"1724","name":"Fermata 2562 - LARGO GIACHINO NORD","lat":45.09708,"lng":7.67132},{"id":"838","name":"Fermata 1758 - VEROLENGO","lat":45.09569,"lng":7.6715},{"id":"841","name":"Fermata 1760 - BRIN","lat":45.09384,"lng":7.67101},{"id":"843","name":"Fermata 1762 - MORTARA","lat":45.09116,"lng":7.67039},{"id":"1963","name":"Fermata 2788 - LIVORNO","lat":45.0903,"lng":7.67119},{"id":"1958","name":"Fermata 2783 - GIACHINO","lat":45.08988,"lng":7.67697},{"id":"1455","name":"Fermata 2312 - BALDISSERA","lat":45.08979,"lng":7.67981},{"id":"355","name":"Fermata 1309 - CIGNA","lat":45.08953,"lng":7.68202},{"id":"358","name":"Fermata 1311 - CRISPI OVEST","lat":45.08881,"lng":7.6875},{"id":"1460","name":"Fermata 2318 - CRISPI EST","lat":45.08803,"lng":7.69035},